{"businesses": [{"id": "WG639VkTjmK5dzydd1BBJA", "alias": "rubirosa-new-york-2", "name": "Rubirosa", "image_url": "https://s3-media4.fl.yelpcdn.com/bphoto/LuSzR8cpVQRofXOT_bMi1A/o.jpg", "is_closed": false, "url": "https://www.yelp.com/biz/rubirosa-new-york-2?adjust_creative=WAxio19XFGhmTEs-1xPo1A&utm_campaign=yelp_api_v3&utm_medium=api_v3_business_search&utm_source=WAxio19XFGhmTEs-1xPo1A", "review_count": 2258, "categories": [{"alias": "italian", "title": "Italian"}, {"alias": "pizza", "title": "Pizza"}], "rating": 4.5, "coordinates": {"latitude": 40.722766, "longitude": -73.996233}, "transactions": ["delivery", "pickup"], "price": "$$", "location": {"address1": "235 Mulberry St", "address2": "", "address3": "", "city": "New York", "zip_code": "10012", "country": "US", "state": "NY", "display_address": ["235 Mulberry St", "New York, NY 10012"]}, "phone": "+12129650500", "display_phone": "(212) 965-0500", "distance": 1932.9467701334759}, {"id": "qBGKigOGn_flCx1apxPzlA", "alias": "piccola-cucina-osteria-new-york", "name": "Piccola Cucina Osteria", "image_url": "https://s3-media1.fl.yelpcdn.com/bphoto/U9CN5QUnEAp1tHKHM8ZrXg/o.jpg", "is_closed": false, "url": "https://www.yelp.com/biz/piccola-cucina-osteria-new-york?adjust_creative=WAxio19XFGhmTEs-1xPo1A&utm_campaign=yelp_api_v3&utm_medium=api_v3_business_search&utm_source=WAxio19XFGhmTEs-1xPo1A", "review_count": 563, "categories": [{"alias": "italian", "title": "Italian"}], "rating": 4.5, "coordinates": {"latitude": 40.72506, "longitude": -74.00322}, "transactions": ["delivery", "pickup"], "price": "$$", "location": {"address1": "196 Spring St", "address2": "", "address3": "", "city": "New York", "zip_code": "10012", "country": "US", "state": "NY", "display_address": ["196 Spring St", "New York, NY 10012"]}, "phone": "+16464787488", "display_phone": "(646) 478-7488", "distance": 2304.888766830417}, {"id": "DoSU8IPq-Py_YV3kYmXPfQ", "alias": "trattoria-trecolori-new-york", "name": "Trattoria Trecolori", "image_url": "https://s3-media4.fl.yelpcdn.com/bphoto/G8vBgHxbEfoONO0JpLX3Qw/o.jpg", "is_closed": false, "url": "https://www.yelp.com/biz/trattoria-trecolori-new-york?adjust_creative=WAxio19XFGhmTEs-1xPo1A&utm_campaign=yelp_api_v3&utm_medium=api_v3_business_search&utm_source=WAxio19XFGhmTEs-1xPo1A", "review_count": 2345, "categories": [{"alias": "italian", "title": "Italian"}], "rating": 4.0, "coordinates": {"latitude": 40.75998, "longitude": -73.98671}, "transactions": ["delivery", "pickup"], "price": "$$", "location": {"address1": "254 West 47th St", "address2": "", "address3": "", "city": "New York", "zip_code": "10036", "country": "US", "state": "NY", "display_address": ["254 West 47th St", "New York, NY 10036"]}, "phone": "+12129974540", "display_phone": "(212) 997-4540", "distance": 6083.735166572698}, {"id": "4zw8vEJNc4mcHh2ARzj2gw", "alias": "osteria-brooklyn-brooklyn", "name": "Osteria Brooklyn", "image_url": "https://s3-media1.fl.yelpcdn.com/bphoto/QzJCcB5xHxvom5Ykn16EVA/o.jpg", "is_closed": false, "url": "https://www.yelp.com/biz/osteria-brooklyn-brooklyn?adjust_creative=WAxio19XFGhmTEs-1xPo1A&utm_campaign=yelp_api_v3&utm_medium=api_v3_business_search&utm_source=WAxio19XFGhmTEs-1xPo1A", "review_count": 26, "categories": [{"alias": "italian", "title": "Italian"}], "rating": 4.5, "coordinates": {"latitude": 40.693154, "longitude": -73.967177}, "transactions": [], "location": {"address1": "458 Myrtle Ave", "address2": "", "address3": null, "city": "Brooklyn", "zip_code": "11205", "country": "US", "state": "NY", "display_address": ["458 Myrtle Ave", "Brooklyn, NY 11205"]}, "phone": "+16467509156", "display_phone": "(646) 750-9156", "distance": 2663.32927828955}, {"id": "dh5r9-SbN8xJ76XvnayWLQ", "alias": "giano-restaurant-new-york", "name": "Giano Restaurant", "image_url": "https://s3-media1.fl.yelpcdn.com/bphoto/0PrOZ5stl86k6V1SzHcjNA/o.jpg", "is_closed": false, "url": "https://www.yelp.com/biz/giano-restaurant-new-york?adjust_creative=WAxio19XFGhmTEs-1xPo1A&utm_campaign=yelp_api_v3&utm_medium=api_v3_business_search&utm_source=WAxio19XFGhmTEs-1xPo1A", "review_count": 600, "categories": [{"alias": "italian", "title": "Italian"}], "rating": 4.5, "coordinates": {"latitude": 40.7262256596862, "longitude": -73.9840574049125}, "transactions": ["delivery", "pickup"], "price": "$$", "location": {"address1": "126 E 7th St", "address2": "", "address3": "", "city": "New York", "zip_code": "10009", "country": "US", "state": "NY", "display_address": ["126 E 7th St", "New York, NY 10009"]}, "phone": "+12126737200", "display_phone": "(212) 673-7200", "distance": 2466.5008597028605}, {"id": "Vs8kQ4R381y27AH018gLpg", "alias": "supper-new-york", "name": "Supper", "image_url": "https://s3-media4.fl.yelpcdn.com/bphoto/jEEH9kmoHFmyQRgXiMjFuw/o.jpg", "is_closed": false, "url": "https://www.yelp.com/biz/supper-new-york?adjust_creative=WAxio19XFGhmTEs-1xPo1A&utm_campaign=yelp_api_v3&utm_medium=api_v3_business_search&utm_source=WAxio19XFGhmTEs-1xPo1A", "review_count": 1299, "categories": [{"alias": "italian", "title": "Italian"}], "rating": 4.0, "coordinates": {"latitude": 40.7229, "longitude": -73.98527}, "transactions": ["delivery", "pickup"], "price": "$$", "location": {"address1": "156 E 2nd St", "address2": "", "address3": "", "city": "New York", "zip_code": "10009", "country": "US", "state": "NY", "display_address": ["156 E 2nd St", "New York, NY 10009"]}, "phone": "+12124777600", "display_phone": "(212) 477-7600", "distance": 2088.7434147525933}, {"id": "22nKUyCIbpnzR6R3_g1ptQ", "alias": "carmines-italian-restaurant-times-square-new-york-5", "name": "Carmine's Italian Restaurant - Times Square", "image_url": "https://s3-media1.fl.yelpcdn.com/bphoto/0UszeEYPWI-RIk0Ak6HtVQ/o.jpg", "is_closed": false, "url": "https://www.yelp.com/biz/carmines-italian-restaurant-times-square-new-york-5?adjust_creative=WAxio19XFGhmTEs-1xPo1A&utm_campaign=yelp_api_v3&utm_medium=api_v3_business_search&utm_source=WAxio19XFGhmTEs-1xPo1A", "review_count": 3781, "categories": [{"alias": "italian", "title": "Italian"}, {"alias": "catering", "title": "Caterers"}, {"alias": "venues", "title": "Venues & Event Spaces"}], "rating": 4.0, "coordinates": {"latitude": 40.7574955824307, "longitude": -73.9866844540098}, "transactions": ["delivery", "pickup"], "price": "$$", "location": {"address1": "200 W 44th St", "address2": "", "address3": "", "city": "New York", "zip_code": "10036", "country": "US", "state": "NY", "display_address": ["200 W 44th St", "New York, NY 10036"]}, "phone": "+12122213800", "display_phone": "(212) 221-3800", "distance": 5823.169973434953}, {"id": "rp8S7scxOkVVeG7dNneMGQ", "alias": "l-artusi-new-york", "name": "L'Artusi", "image_url": "https://s3-media3.fl.yelpcdn.com/bphoto/HeDloBW-SnokWblGDuPrUQ/o.jpg", "is_closed": false, "url": "https://www.yelp.com/biz/l-artusi-new-york?adjust_creative=WAxio19XFGhmTEs-1xPo1A&utm_campaign=yelp_api_v3&utm_medium=api_v3_business_search&utm_source=WAxio19XFGhmTEs-1xPo1A", "review_count": 1847, "categories": [{"alias": "italian", "title": "Italian"}, {"alias": "cocktailbars", "title": "Cocktail Bars"}], "rating": 4.5, "coordinates": {"latitude": 40.73372, "longitude": -74.00513}, "transactions": ["delivery", "pickup"], "price": "$$$", "location": {"address1": "228 W 10th St", "address2": "", "address3": "", "city": "New York", "zip_code": "10014", "country": "US", "state": "NY", "display_address": ["228 W 10th St", "New York, NY 10014"]}, "phone": "+12122555757", "display_phone": "(212) 255-5757", "distance": 3272.999060891836}, {"id": "qgY41g_eg0eNzewCXmKcaA", "alias": "lillo-cucina-italiana-brooklyn", "name": "Lillo Cucina Italiana", "image_url": "https://s3-media3.fl.yelpcdn.com/bphoto/b2MP6R0g_sfFpnLRnQSduA/o.jpg", "is_closed": false, "url": "https://www.yelp.com/biz/lillo-cucina-italiana-brooklyn?adjust_creative=WAxio19XFGhmTEs-1xPo1A&utm_campaign=yelp_api_v3&utm_medium=api_v3_business_search&utm_source=WAxio19XFGhmTEs-1xPo1A", "review_count": 140, "categories": [{"alias": "cafes", "title": "Cafes"}, {"alias": "italian", "title": "Italian"}], "rating": 5.0, "coordinates": {"latitude": 40.69023, "longitude": -73.99634}, "transactions": [], "price": "$$", "location": {"address1": "331 Henry St", "address2": null, "address3": "", "city": "Brooklyn", "zip_code": "11201", "country": "US", "state": "NY", "display_address": ["331 Henry St", "Brooklyn, NY 11201"]}, "phone": "+13477630899", "display_phone": "(347) 763-0899", "distance": 1699.2204952670313}, {"id": "5TX0X8w5ssIACU_pnBEq6g", "alias": "tonys-di-napoli-new-york-4", "name": "Tony's Di Napoli", "image_url": "https://s3-media1.fl.yelpcdn.com/bphoto/4wyiOvfKrh4Ff9uWwatg9A/o.jpg", "is_closed": false, "url": "https://www.yelp.com/biz/tonys-di-napoli-new-york-4?adjust_creative=WAxio19XFGhmTEs-1xPo1A&utm_campaign=yelp_api_v3&utm_medium=api_v3_business_search&utm_source=WAxio19XFGhmTEs-1xPo1A", "review_count": 2095, "categories": [{"alias": "italian", "title": "Italian"}], "rating": 4.0, "coordinates": {"latitude": 40.75641, "longitude": -73.98547}, "transactions": ["delivery", "pickup"], "price": "$$", "location": {"address1": "147 W 43rd St", "address2": "", "address3": "", "city": "New York", "zip_code": "10036", "country": "US", "state": "NY", "display_address": ["147 W 43rd St", "New York, NY 10036"]}, "phone": "+12122210100", "display_phone": "(212) 221-0100", "distance": 5724.255233853066}], "total": 8200, "region": {"center": {"longitude": -73.99429321289062, "latitude": 40.70544486444615}}}