{"businesses": [{"id": "H8qcX7MNNnC1bqE0LnIhKg", "alias": "sim\u00f2-pizza-new-york-4", "name": "SIM\u00d2 PIZZA", "image_url": "https://s3-media3.fl.yelpcdn.com/bphoto/qaSQsBdO9e1gz5OH9ROckw/o.jpg", "is_closed": false, "url": "https://www.yelp.com/biz/sim%C3%B2-pizza-new-york-4?adjust_creative=WAxio19XFGhmTEs-1xPo1A&utm_campaign=yelp_api_v3&utm_medium=api_v3_business_search&utm_source=WAxio19XFGhmTEs-1xPo1A", "review_count": 141, "categories": [{"alias": "pizza", "title": "Pizza"}], "rating": 4.5, "coordinates": {"latitude": 40.7392597584612, "longitude": -74.0088130692187}, "transactions": ["delivery", "pickup"], "price": "$", "location": {"address1": "90-92 Gansevoort St", "address2": "", "address3": null, "city": "New York", "zip_code": "10014", "country": "US", "state": "NY", "display_address": ["90-92 Gansevoort St", "New York, NY 10014"]}, "phone": "+12124622703", "display_phone": "(212) 462-2703", "distance": 3954.1313238707344}, {"id": "HbCyzokiA19bEWUp6mga_g", "alias": "bibi-new-york", "name": "bibi", "image_url": "https://s3-media4.fl.yelpcdn.com/bphoto/fmFUJJWt9CSGHzBARW83zg/o.jpg", "is_closed": false, "url": "https://www.yelp.com/biz/bibi-new-york?adjust_creative=WAxio19XFGhmTEs-1xPo1A&utm_campaign=yelp_api_v3&utm_medium=api_v3_business_search&utm_source=WAxio19XFGhmTEs-1xPo1A", "review_count": 189, "categories": [{"alias": "wine_bars", "title": "Wine Bars"}], "rating": 4.5, "coordinates": {"latitude": 40.723937, "longitude": -73.983519}, "transactions": ["delivery", "pickup"], "price": "$$", "location": {"address1": "211 E 4th St", "address2": "", "address3": "", "city": "New York", "zip_code": "10009", "country": "US", "state": "NY", "display_address": ["211 E 4th St", "New York, NY 10009"]}, "phone": "+12126732424", "display_phone": "(212) 673-2424", "distance": 2247.8154805576246}, {"id": "2F-7XCoPS1mbdy9ioqWuqw", "alias": "serafina-new-york-18", "name": "Serafina", "image_url": "https://s3-media2.fl.yelpcdn.com/bphoto/dLf7xCrI6Zzb-DOReTevEg/o.jpg", "is_closed": false, "url": "https://www.yelp.com/biz/serafina-new-york-18?adjust_creative=WAxio19XFGhmTEs-1xPo1A&utm_campaign=yelp_api_v3&utm_medium=api_v3_business_search&utm_source=WAxio19XFGhmTEs-1xPo1A", "review_count": 75, "categories": [{"alias": "italian", "title": "Italian"}, {"alias": "pizza", "title": "Pizza"}], "rating": 3.0, "coordinates": {"latitude": 40.80043, "longitude": -73.96828}, "transactions": ["delivery", "pickup"], "price": "$$", "location": {"address1": "2737 Broadway", "address2": null, "address3": "", "city": "New York", "zip_code": "10025", "country": "US", "state": "NY", "display_address": ["2737 Broadway", "New York, NY 10025"]}, "phone": "+12123010664", "display_phone": "(212) 301-0664", "distance": 10792.323288621526}, {"id": "5EmZzIWxYCrc1KOnbA78-w", "alias": "gran-tivoli-new-york-2", "name": "Gran Tivoli", "image_url": "https://s3-media3.fl.yelpcdn.com/bphoto/eCZ47FORha80ISUv79J_cQ/o.jpg", "is_closed": false, "url": "https://www.yelp.com/biz/gran-tivoli-new-york-2?adjust_creative=WAxio19XFGhmTEs-1xPo1A&utm_campaign=yelp_api_v3&utm_medium=api_v3_business_search&utm_source=WAxio19XFGhmTEs-1xPo1A", "review_count": 55, "categories": [{"alias": "bars", "title": "Bars"}, {"alias": "italian", "title": "Italian"}], "rating": 4.0, "coordinates": {"latitude": 40.721014, "longitude": -73.997714}, "transactions": [], "price": "$$$", "location": {"address1": "406 Broome St", "address2": "", "address3": null, "city": "New York", "zip_code": "10013", "country": "US", "state": "NY", "display_address": ["406 Broome St", "New York, NY 10013"]}, "phone": "", "display_phone": "", "distance": 1755.0510871898798}, {"id": "ozk8FpXVEJ10PWoSy5HJ1w", "alias": "delmar-pizzeria-brooklyn", "name": "Delmar Pizzeria", "image_url": "https://s3-media2.fl.yelpcdn.com/bphoto/xgCZqqQYLZKEGAQybLd6GA/o.jpg", "is_closed": false, "url": "https://www.yelp.com/biz/delmar-pizzeria-brooklyn?adjust_creative=WAxio19XFGhmTEs-1xPo1A&utm_campaign=yelp_api_v3&utm_medium=api_v3_business_search&utm_source=WAxio19XFGhmTEs-1xPo1A", "review_count": 221, "categories": [{"alias": "pizza", "title": "Pizza"}, {"alias": "italian", "title": "Italian"}, {"alias": "sandwiches", "title": "Sandwiches"}], "rating": 4.0, "coordinates": {"latitude": 40.58615, "longitude": -73.95235}, "transactions": ["delivery", "pickup"], "price": "$", "location": {"address1": "1668 Sheepshead Bay Rd", "address2": "", "address3": "", "city": "Brooklyn", "zip_code": "11235", "country": "US", "state": "NY", "display_address": ["1668 Sheepshead Bay Rd", "Brooklyn, NY 11235"]}, "phone": "+17187697766", "display_phone": "(718) 769-7766", "distance": 13726.734177146054}, {"id": "ZamvzoxEKiJEboO0ZUdogw", "alias": "amici-ristorante-new-york-3", "name": "Amici Ristorante", "image_url": "https://s3-media4.fl.yelpcdn.com/bphoto/dR39Lx6HmiLNtYaAhzC85Q/o.jpg", "is_closed": false, "url": "https://www.yelp.com/biz/amici-ristorante-new-york-3?adjust_creative=WAxio19XFGhmTEs-1xPo1A&utm_campaign=yelp_api_v3&utm_medium=api_v3_business_search&utm_source=WAxio19XFGhmTEs-1xPo1A", "review_count": 7, "categories": [{"alias": "italian", "title": "Italian"}], "rating": 3.0, "coordinates": {"latitude": 40.71981, "longitude": -73.99722}, "transactions": ["delivery", "pickup"], "price": "$$", "location": {"address1": "165 Mulberry St", "address2": "", "address3": null, "city": "New York", "zip_code": "10013", "country": "US", "state": "NY", "display_address": ["165 Mulberry St", "New York, NY 10013"]}, "phone": "+12122032766", "display_phone": "(212) 203-2766", "distance": 1623.9902945862016}, {"id": "bqeQ4l_vYVaCLAzkIA6QrQ", "alias": "harlem-wine-room-new-york", "name": "Harlem Wine Room", "image_url": "https://s3-media2.fl.yelpcdn.com/bphoto/Hj2emWgspSoSEOtD0D860A/o.jpg", "is_closed": false, "url": "https://www.yelp.com/biz/harlem-wine-room-new-york?adjust_creative=WAxio19XFGhmTEs-1xPo1A&utm_campaign=yelp_api_v3&utm_medium=api_v3_business_search&utm_source=WAxio19XFGhmTEs-1xPo1A", "review_count": 16, "categories": [{"alias": "wine_bars", "title": "Wine Bars"}, {"alias": "cocktailbars", "title": "Cocktail Bars"}, {"alias": "tapas", "title": "Tapas Bars"}], "rating": 4.5, "coordinates": {"latitude": 40.8236484, "longitude": -73.9521055}, "transactions": ["delivery", "pickup"], "price": "$$", "location": {"address1": "3454 Broadway", "address2": null, "address3": "", "city": "New York", "zip_code": "10031", "country": "US", "state": "NY", "display_address": ["3454 Broadway", "New York, NY 10031"]}, "phone": "+19172616944", "display_phone": "(917) 261-6944", "distance": 13615.378037109072}, {"id": "XVWogwA8XncHqRY4JVN9eQ", "alias": "tenth-street-pasta-and-pizza-hoboken", "name": "Tenth Street Pasta & Pizza", "image_url": "https://s3-media1.fl.yelpcdn.com/bphoto/c0x5RDesYjZfQ3v88lih-A/o.jpg", "is_closed": false, "url": "https://www.yelp.com/biz/tenth-street-pasta-and-pizza-hoboken?adjust_creative=WAxio19XFGhmTEs-1xPo1A&utm_campaign=yelp_api_v3&utm_medium=api_v3_business_search&utm_source=WAxio19XFGhmTEs-1xPo1A", "review_count": 175, "categories": [{"alias": "pizza", "title": "Pizza"}, {"alias": "italian", "title": "Italian"}], "rating": 3.5, "coordinates": {"latitude": 40.74934, "longitude": -74.03138}, "transactions": ["delivery", "pickup"], "price": "$", "location": {"address1": "1000 Willow Ave", "address2": "", "address3": null, "city": "Hoboken", "zip_code": "07030", "country": "US", "state": "NJ", "display_address": ["1000 Willow Ave", "Hoboken, NJ 07030"]}, "phone": "+12016838134", "display_phone": "(201) 683-8134", "distance": 5795.676600873836}, {"id": "x-kGxh73dp8P85lXUFHV3Q", "alias": "dursos-pasta-and-ravioli-company-flushing", "name": "Durso's Pasta & Ravioli Company", "image_url": "https://s3-media1.fl.yelpcdn.com/bphoto/PoopOZ4RV7K1H4xilq2zaQ/o.jpg", "is_closed": false, "url": "https://www.yelp.com/biz/dursos-pasta-and-ravioli-company-flushing?adjust_creative=WAxio19XFGhmTEs-1xPo1A&utm_campaign=yelp_api_v3&utm_medium=api_v3_business_search&utm_source=WAxio19XFGhmTEs-1xPo1A", "review_count": 134, "categories": [{"alias": "pastashops", "title": "Pasta Shops"}], "rating": 4.5, "coordinates": {"latitude": 40.76341, "longitude": -73.79294}, "transactions": ["delivery", "pickup"], "price": "$$", "location": {"address1": "189-01 Crocheron Ave", "address2": "", "address3": "", "city": "Flushing", "zip_code": "11358", "country": "US", "state": "NY", "display_address": ["189-01 Crocheron Ave", "Flushing, NY 11358"]}, "phone": "+17183581311", "display_phone": "(718) 358-1311", "distance": 18142.006491443473}, {"id": "sNu05k9J8ILFeBzLM7LCIQ", "alias": "patsys-pizzeria-bay-ridge-brooklyn", "name": "Patsy's Pizzeria - Bay Ridge", "image_url": "https://s3-media3.fl.yelpcdn.com/bphoto/qnhA7jezuhBj05SmlOhfeA/o.jpg", "is_closed": false, "url": "https://www.yelp.com/biz/patsys-pizzeria-bay-ridge-brooklyn?adjust_creative=WAxio19XFGhmTEs-1xPo1A&utm_campaign=yelp_api_v3&utm_medium=api_v3_business_search&utm_source=WAxio19XFGhmTEs-1xPo1A", "review_count": 108, "categories": [{"alias": "pizza", "title": "Pizza"}, {"alias": "italian", "title": "Italian"}], "rating": 3.5, "coordinates": {"latitude": 40.6217316, "longitude": -74.0319934}, "transactions": ["delivery", "pickup"], "price": "$$", "location": {"address1": "8814 3rd Ave", "address2": "", "address3": null, "city": "Brooklyn", "zip_code": "11209", "country": "US", "state": "NY", "display_address": ["8814 3rd Ave", "Brooklyn, NY 11209"]}, "phone": "+17187453003", "display_phone": "(718) 745-3003", "distance": 9836.638739974449}, {"id": "J6LTk4EZZ4HM7ASkZQztbQ", "alias": "francescos-brooklyn", "name": "Francesco's", "image_url": "https://s3-media3.fl.yelpcdn.com/bphoto/xUx0WrUjshZO_h5wwUiNmQ/o.jpg", "is_closed": false, "url": "https://www.yelp.com/biz/francescos-brooklyn?adjust_creative=WAxio19XFGhmTEs-1xPo1A&utm_campaign=yelp_api_v3&utm_medium=api_v3_business_search&utm_source=WAxio19XFGhmTEs-1xPo1A", "review_count": 81, "categories": [{"alias": "italian", "title": "Italian"}, {"alias": "pizza", "title": "Pizza"}], "rating": 3.5, "coordinates": {"latitude": 40.68357, "longitude": -73.99945}, "transactions": ["delivery", "pickup"], "price": "$", "location": {"address1": "529 Henry St", "address2": "", "address3": "", "city": "Brooklyn", "zip_code": "11231", "country": "US", "state": "NY", "display_address": ["529 Henry St", "Brooklyn, NY 11231"]}, "phone": "+17188340863", "display_phone": "(718) 834-0863", "distance": 2469.8670838183452}, {"id": "8wMJdpw2R_4VfS55itB_gQ", "alias": "sweetwater-restaurant-brooklyn-2", "name": "Sweetwater Restaurant", "image_url": "https://s3-media4.fl.yelpcdn.com/bphoto/kMmAhqVDm_aIs0ch-G2EIQ/o.jpg", "is_closed": false, "url": "https://www.yelp.com/biz/sweetwater-restaurant-brooklyn-2?adjust_creative=WAxio19XFGhmTEs-1xPo1A&utm_campaign=yelp_api_v3&utm_medium=api_v3_business_search&utm_source=WAxio19XFGhmTEs-1xPo1A", "review_count": 370, "categories": [{"alias": "newamerican", "title": "American (New)"}, {"alias": "bars", "title": "Bars"}], "rating": 4.0, "coordinates": {"latitude": 40.7184736, "longitude": -73.9600178}, "transactions": [], "price": "$$", "location": {"address1": "105 N 6th St", "address2": "", "address3": "", "city": "Brooklyn", "zip_code": "11249", "country": "US", "state": "NY", "display_address": ["105 N 6th St", "Brooklyn, NY 11249"]}, "phone": "+17189630608", "display_phone": "(718) 963-0608", "distance": 3231.820645331585}, {"id": "fyepvQnhH7O1Bw9V4Xu-OA", "alias": "la-bella-salumeria-delicatessen-union-city", "name": "La Bella Salumeria Delicatessen", "image_url": "https://s3-media2.fl.yelpcdn.com/bphoto/f_IbnpDonPQiUGveCpYTcw/o.jpg", "is_closed": false, "url": "https://www.yelp.com/biz/la-bella-salumeria-delicatessen-union-city?adjust_creative=WAxio19XFGhmTEs-1xPo1A&utm_campaign=yelp_api_v3&utm_medium=api_v3_business_search&utm_source=WAxio19XFGhmTEs-1xPo1A", "review_count": 54, "categories": [{"alias": "delis", "title": "Delis"}, {"alias": "italian", "title": "Italian"}, {"alias": "sandwiches", "title": "Sandwiches"}], "rating": 4.5, "coordinates": {"latitude": 40.767234, "longitude": -74.03244}, "transactions": ["delivery"], "price": "$", "location": {"address1": "2308 Bergenline Ave", "address2": "", "address3": "", "city": "Union City", "zip_code": "07087", "country": "US", "state": "NJ", "display_address": ["2308 Bergenline Ave", "Union City, NJ 07087"]}, "phone": "+12018673065", "display_phone": "(201) 867-3065", "distance": 7588.892904557689}, {"id": "h7M1s9arHO5dcMf-XxzOLA", "alias": "ebb-and-flow-brooklyn", "name": "Ebb & Flow", "image_url": "https://s3-media3.fl.yelpcdn.com/bphoto/sK0q05014B0llB1c6YSrrg/o.jpg", "is_closed": false, "url": "https://www.yelp.com/biz/ebb-and-flow-brooklyn?adjust_creative=WAxio19XFGhmTEs-1xPo1A&utm_campaign=yelp_api_v3&utm_medium=api_v3_business_search&utm_source=WAxio19XFGhmTEs-1xPo1A", "review_count": 16, "categories": [{"alias": "bakeries", "title": "Bakeries"}, {"alias": "sandwiches", "title": "Sandwiches"}, {"alias": "salad", "title": "Salad"}], "rating": 4.0, "coordinates": {"latitude": 40.693857, "longitude": -74.000871}, "transactions": ["delivery", "pickup"], "location": {"address1": "159 Bridge Dr", "address2": "", "address3": null, "city": "Brooklyn", "zip_code": "11201", "country": "US", "state": "NY", "display_address": ["159 Bridge Dr", "Brooklyn, NY 11201"]}, "phone": "+17186189775", "display_phone": "(718) 618-9775", "distance": 1402.7633135613833}, {"id": "eby9pE6FzmwjoYRVzDpzew", "alias": "sette-mezzo-new-york", "name": "Sette Mezzo", "image_url": "https://s3-media2.fl.yelpcdn.com/bphoto/2FzyJfh7vR-6Hq8LTbbVxA/o.jpg", "is_closed": false, "url": "https://www.yelp.com/biz/sette-mezzo-new-york?adjust_creative=WAxio19XFGhmTEs-1xPo1A&utm_campaign=yelp_api_v3&utm_medium=api_v3_business_search&utm_source=WAxio19XFGhmTEs-1xPo1A", "review_count": 64, "categories": [{"alias": "italian", "title": "Italian"}], "rating": 4.0, "coordinates": {"latitude": 40.7693455389848, "longitude": -73.9627933502197}, "transactions": [], "price": "$$$", "location": {"address1": "969 Lexington Ave", "address2": "", "address3": "", "city": "New York", "zip_code": "10021", "country": "US", "state": "NY", "display_address": ["969 Lexington Ave", "New York, NY 10021"]}, "phone": "+12124720400", "display_phone": "(212) 472-0400", "distance": 7584.890776082628}, {"id": "VBuF671en_sI7wV5aYkrpg", "alias": "enzos-pizza-ozone-park-2", "name": "Enzo's Pizza", "image_url": "https://s3-media1.fl.yelpcdn.com/bphoto/fQsOuvvOKofW2mQc3QWfTg/o.jpg", "is_closed": false, "url": "https://www.yelp.com/biz/enzos-pizza-ozone-park-2?adjust_creative=WAxio19XFGhmTEs-1xPo1A&utm_campaign=yelp_api_v3&utm_medium=api_v3_business_search&utm_source=WAxio19XFGhmTEs-1xPo1A", "review_count": 79, "categories": [{"alias": "italian", "title": "Italian"}, {"alias": "pastashops", "title": "Pasta Shops"}, {"alias": "pizza", "title": "Pizza"}], "rating": 3.5, "coordinates": {"latitude": 40.6842863, "longitude": -73.8594333}, "transactions": ["delivery", "pickup"], "price": "$$", "location": {"address1": "8102 Rockaway Blvd", "address2": "", "address3": "", "city": "Ozone Park", "zip_code": "11416", "country": "US", "state": "NY", "display_address": ["8102 Rockaway Blvd", "Ozone Park, NY 11416"]}, "phone": "+17182960880", "display_phone": "(718) 296-0880", "distance": 11619.704421961838}, {"id": "bH6kFlRLtfIo2dtjs1gJ8g", "alias": "dolce-vita-brooklyn", "name": "Dolce Vita", "image_url": "https://s3-media2.fl.yelpcdn.com/bphoto/K5BXgoekO2AwvAdnbMM9ow/o.jpg", "is_closed": false, "url": "https://www.yelp.com/biz/dolce-vita-brooklyn?adjust_creative=WAxio19XFGhmTEs-1xPo1A&utm_campaign=yelp_api_v3&utm_medium=api_v3_business_search&utm_source=WAxio19XFGhmTEs-1xPo1A", "review_count": 37, "categories": [{"alias": "bars", "title": "Bars"}, {"alias": "italian", "title": "Italian"}], "rating": 4.5, "coordinates": {"latitude": 40.619697, "longitude": -73.918792}, "transactions": [], "price": "$$$", "location": {"address1": "5811 Ave N", "address2": null, "address3": "", "city": "Brooklyn", "zip_code": "11234", "country": "US", "state": "NY", "display_address": ["5811 Ave N", "Brooklyn, NY 11234"]}, "phone": "+17184443537", "display_phone": "(718) 444-3537", "distance": 11466.292340401198}, {"id": "7jbInJHwOm4W_kesEe19mA", "alias": "my-pie-new-york-5", "name": "My Pie", "image_url": "https://s3-media3.fl.yelpcdn.com/bphoto/p3_mXtue214X53EL_M0-Zw/o.jpg", "is_closed": false, "url": "https://www.yelp.com/biz/my-pie-new-york-5?adjust_creative=WAxio19XFGhmTEs-1xPo1A&utm_campaign=yelp_api_v3&utm_medium=api_v3_business_search&utm_source=WAxio19XFGhmTEs-1xPo1A", "review_count": 153, "categories": [{"alias": "pizza", "title": "Pizza"}, {"alias": "italian", "title": "Italian"}, {"alias": "vegan", "title": "Vegan"}], "rating": 4.5, "coordinates": {"latitude": 40.77823, "longitude": -73.98117}, "transactions": ["delivery", "pickup"], "price": "$", "location": {"address1": "166 West 72nd St", "address2": "", "address3": null, "city": "New York", "zip_code": "10023", "country": "US", "state": "NY", "display_address": ["166 West 72nd St", "New York, NY 10023"]}, "phone": "+12127877200", "display_phone": "(212) 787-7200", "distance": 8163.87808658151}, {"id": "ngE6XKXWvDt-yVBET2BVtg", "alias": "emilios-of-morris-park-bronx", "name": "Emilio's of Morris Park", "image_url": "https://s3-media4.fl.yelpcdn.com/bphoto/kmYMpeQzadMSN5r1i6Se4g/o.jpg", "is_closed": false, "url": "https://www.yelp.com/biz/emilios-of-morris-park-bronx?adjust_creative=WAxio19XFGhmTEs-1xPo1A&utm_campaign=yelp_api_v3&utm_medium=api_v3_business_search&utm_source=WAxio19XFGhmTEs-1xPo1A", "review_count": 160, "categories": [{"alias": "pizza", "title": "Pizza"}, {"alias": "italian", "title": "Italian"}], "rating": 4.0, "coordinates": {"latitude": 40.849121, "longitude": -73.854675}, "transactions": ["delivery", "pickup"], "price": "$$", "location": {"address1": "1051 Morris Park Ave", "address2": "", "address3": "", "city": "Bronx", "zip_code": "10461", "country": "US", "state": "NY", "display_address": ["1051 Morris Park Ave", "Bronx, NY 10461"]}, "phone": "+17188226758", "display_phone": "(718) 822-6758", "distance": 19835.387352359015}, {"id": "-KrQ1gOiyXCbffsWyc5SNQ", "alias": "the-leopard-at-des-artistes-new-york", "name": "The Leopard at des Artistes", "image_url": "https://s3-media3.fl.yelpcdn.com/bphoto/vUqy7ZlOhHDTamdeokFo-A/o.jpg", "is_closed": false, "url": "https://www.yelp.com/biz/the-leopard-at-des-artistes-new-york?adjust_creative=WAxio19XFGhmTEs-1xPo1A&utm_campaign=yelp_api_v3&utm_medium=api_v3_business_search&utm_source=WAxio19XFGhmTEs-1xPo1A", "review_count": 223, "categories": [{"alias": "italian", "title": "Italian"}], "rating": 4.0, "coordinates": {"latitude": 40.773515, "longitude": -73.978841}, "transactions": ["delivery", "pickup"], "price": "$$$", "location": {"address1": "1 W 67th St", "address2": "", "address3": "", "city": "New York", "zip_code": "10023", "country": "US", "state": "NY", "display_address": ["1 W 67th St", "New York, NY 10023"]}, "phone": "+12127878767", "display_phone": "(212) 787-8767", "distance": 7680.187629882921}, {"id": "Da9aNH6kW3fv4mTzqx3yPw", "alias": "caffe-palermo-new-york-2", "name": "Caffe Palermo", "image_url": "https://s3-media1.fl.yelpcdn.com/bphoto/64PxUZtpu2zMUPosXhhMEw/o.jpg", "is_closed": false, "url": "https://www.yelp.com/biz/caffe-palermo-new-york-2?adjust_creative=WAxio19XFGhmTEs-1xPo1A&utm_campaign=yelp_api_v3&utm_medium=api_v3_business_search&utm_source=WAxio19XFGhmTEs-1xPo1A", "review_count": 558, "categories": [{"alias": "bakeries", "title": "Bakeries"}, {"alias": "coffee", "title": "Coffee & Tea"}, {"alias": "italian", "title": "Italian"}], "rating": 3.5, "coordinates": {"latitude": 40.7189596, "longitude": -73.9972725}, "transactions": ["delivery", "pickup"], "price": "$$", "location": {"address1": "148 Mulberry St", "address2": "", "address3": "", "city": "New York", "zip_code": "10013", "country": "US", "state": "NY", "display_address": ["148 Mulberry St", "New York, NY 10013"]}, "phone": "+12124314205", "display_phone": "(212) 431-4205", "distance": 1527.347227012769}, {"id": "WHX90qTIuHdWHWDY5g9COw", "alias": "apulia-hoboken", "name": "Apulia", "image_url": "https://s3-media3.fl.yelpcdn.com/bphoto/MnOK9xDfkigJEc2l7-jFdQ/o.jpg", "is_closed": false, "url": "https://www.yelp.com/biz/apulia-hoboken?adjust_creative=WAxio19XFGhmTEs-1xPo1A&utm_campaign=yelp_api_v3&utm_medium=api_v3_business_search&utm_source=WAxio19XFGhmTEs-1xPo1A", "review_count": 107, "categories": [{"alias": "pizza", "title": "Pizza"}, {"alias": "italian", "title": "Italian"}], "rating": 4.0, "coordinates": {"latitude": 40.75297, "longitude": -74.02582}, "transactions": ["delivery", "pickup"], "price": "$$", "location": {"address1": "1319 Washington St", "address2": "", "address3": null, "city": "Hoboken", "zip_code": "07030", "country": "US", "state": "NJ", "display_address": ["1319 Washington St", "Hoboken, NJ 07030"]}, "phone": "+12016833923", "display_phone": "(201) 683-3923", "distance": 5918.624768762771}, {"id": "Pb2HqSO0SP8HymbZM099hg", "alias": "tommaso-restaurant-brooklyn-2", "name": "Tommaso Restaurant", "image_url": "https://s3-media1.fl.yelpcdn.com/bphoto/GjgIG4FY99E5jIulWR4jGg/o.jpg", "is_closed": false, "url": "https://www.yelp.com/biz/tommaso-restaurant-brooklyn-2?adjust_creative=WAxio19XFGhmTEs-1xPo1A&utm_campaign=yelp_api_v3&utm_medium=api_v3_business_search&utm_source=WAxio19XFGhmTEs-1xPo1A", "review_count": 108, "categories": [{"alias": "italian", "title": "Italian"}], "rating": 3.5, "coordinates": {"latitude": 40.611598, "longitude": -74.010337}, "transactions": ["delivery", "pickup"], "price": "$$$", "location": {"address1": "1464 86th St", "address2": "", "address3": "", "city": "Brooklyn", "zip_code": "11228", "country": "US", "state": "NY", "display_address": ["1464 86th St", "Brooklyn, NY 11228"]}, "phone": "+17182369883", "display_phone": "(718) 236-9883", "distance": 10520.22174813807}, {"id": "GnaeBuilZb_fU01v3wNhZw", "alias": "grimaldis-hoboken", "name": "Grimaldi's", "image_url": "https://s3-media3.fl.yelpcdn.com/bphoto/N5G-KR0Q8BJcIK4FnaycQw/o.jpg", "is_closed": false, "url": "https://www.yelp.com/biz/grimaldis-hoboken?adjust_creative=WAxio19XFGhmTEs-1xPo1A&utm_campaign=yelp_api_v3&utm_medium=api_v3_business_search&utm_source=WAxio19XFGhmTEs-1xPo1A", "review_count": 409, "categories": [{"alias": "pizza", "title": "Pizza"}], "rating": 4.0, "coordinates": {"latitude": 40.74131, "longitude": -74.02953}, "transactions": ["delivery"], "price": "$$", "location": {"address1": "411 Washington St", "address2": "", "address3": "", "city": "Hoboken", "zip_code": "07030", "country": "US", "state": "NJ", "display_address": ["411 Washington St", "Hoboken, NJ 07030"]}, "phone": "+12017920010", "display_phone": "(201) 792-0010", "distance": 4996.251158691458}, {"id": "EJOpdpy6QPTtmC7Fn04yHw", "alias": "patsys-pizzeria-new-york-6", "name": "Patsy's Pizzeria", "image_url": "https://s3-media2.fl.yelpcdn.com/bphoto/EF3PcH1Eoz2NS7EdnOsqag/o.jpg", "is_closed": false, "url": "https://www.yelp.com/biz/patsys-pizzeria-new-york-6?adjust_creative=WAxio19XFGhmTEs-1xPo1A&utm_campaign=yelp_api_v3&utm_medium=api_v3_business_search&utm_source=WAxio19XFGhmTEs-1xPo1A", "review_count": 504, "categories": [{"alias": "pizza", "title": "Pizza"}, {"alias": "italian", "title": "Italian"}], "rating": 3.5, "coordinates": {"latitude": 40.7785204, "longitude": -73.9769718}, "transactions": ["delivery", "pickup"], "price": "$$", "location": {"address1": "61 W 74th St", "address2": "", "address3": "", "city": "New York", "zip_code": "10023", "country": "US", "state": "NY", "display_address": ["61 W 74th St", "New York, NY 10023"]}, "phone": "+12125793000", "display_phone": "(212) 579-3000", "distance": 8271.80412348984}, {"id": "9ngvh253nco8mFljHoB0Hg", "alias": "alleva-dairy-new-york", "name": "Alleva Dairy", "image_url": "https://s3-media4.fl.yelpcdn.com/bphoto/VyuKIlAAAFXJIkiHeI9aUg/o.jpg", "is_closed": false, "url": "https://www.yelp.com/biz/alleva-dairy-new-york?adjust_creative=WAxio19XFGhmTEs-1xPo1A&utm_campaign=yelp_api_v3&utm_medium=api_v3_business_search&utm_source=WAxio19XFGhmTEs-1xPo1A", "review_count": 165, "categories": [{"alias": "cheese", "title": "Cheese Shops"}], "rating": 4.0, "coordinates": {"latitude": 40.719501, "longitude": -73.997093}, "transactions": ["delivery", "pickup"], "price": "$$", "location": {"address1": "188 Grand St", "address2": "", "address3": "", "city": "New York", "zip_code": "10013", "country": "US", "state": "NY", "display_address": ["188 Grand St", "New York, NY 10013"]}, "phone": "+12122267990", "display_phone": "(212) 226-7990", "distance": 1581.554498165904}, {"id": "qIOdughNii7-OW88IFtPQw", "alias": "rosas-pizza-ridgewood", "name": "Rosa's Pizza", "image_url": "https://s3-media4.fl.yelpcdn.com/bphoto/DTa1CbELDyW7LYchNVAoYg/o.jpg", "is_closed": false, "url": "https://www.yelp.com/biz/rosas-pizza-ridgewood?adjust_creative=WAxio19XFGhmTEs-1xPo1A&utm_campaign=yelp_api_v3&utm_medium=api_v3_business_search&utm_source=WAxio19XFGhmTEs-1xPo1A", "review_count": 264, "categories": [{"alias": "pizza", "title": "Pizza"}, {"alias": "italian", "title": "Italian"}], "rating": 4.5, "coordinates": {"latitude": 40.712192, "longitude": -73.899997}, "transactions": [], "price": "$", "location": {"address1": "6265 Fresh Pond Rd", "address2": "", "address3": "", "city": "Ridgewood", "zip_code": "11385", "country": "US", "state": "NY", "display_address": ["6265 Fresh Pond Rd", "Ridgewood, NY 11385"]}, "phone": "+17184977672", "display_phone": "(718) 497-7672", "distance": 7983.5045495200175}, {"id": "oJ_XSPZFpvIt6rvheSQl7A", "alias": "bleecker-street-pizza-new-york", "name": "Bleecker Street Pizza", "image_url": "https://s3-media4.fl.yelpcdn.com/bphoto/Kyi2tP43S_a6s-zXD38NUQ/o.jpg", "is_closed": false, "url": "https://www.yelp.com/biz/bleecker-street-pizza-new-york?adjust_creative=WAxio19XFGhmTEs-1xPo1A&utm_campaign=yelp_api_v3&utm_medium=api_v3_business_search&utm_source=WAxio19XFGhmTEs-1xPo1A", "review_count": 2362, "categories": [{"alias": "pizza", "title": "Pizza"}, {"alias": "italian", "title": "Italian"}], "rating": 4.0, "coordinates": {"latitude": 40.7320627016512, "longitude": -74.0036552270137}, "transactions": ["delivery", "pickup"], "price": "$", "location": {"address1": "69 7th Ave S", "address2": null, "address3": "", "city": "New York", "zip_code": "10014", "country": "US", "state": "NY", "display_address": ["69 7th Ave S", "New York, NY 10014"]}, "phone": "+12129244466", "display_phone": "(212) 924-4466", "distance": 3072.9540450669765}, {"id": "KL6AUMQI_Ae7_brkK0fy_w", "alias": "la-vela-dining-and-bar-new-york", "name": "La Vela Dining & Bar", "image_url": "https://s3-media1.fl.yelpcdn.com/bphoto/TjklgI19BjkMM74H7Z_1ew/o.jpg", "is_closed": false, "url": "https://www.yelp.com/biz/la-vela-dining-and-bar-new-york?adjust_creative=WAxio19XFGhmTEs-1xPo1A&utm_campaign=yelp_api_v3&utm_medium=api_v3_business_search&utm_source=WAxio19XFGhmTEs-1xPo1A", "review_count": 169, "categories": [{"alias": "italian", "title": "Italian"}, {"alias": "bars", "title": "Bars"}, {"alias": "diners", "title": "Diners"}], "rating": 4.0, "coordinates": {"latitude": 40.761082, "longitude": -73.997872}, "transactions": ["delivery", "pickup"], "price": "$$", "location": {"address1": "558 11th Ave", "address2": "", "address3": "", "city": "New York", "zip_code": "10036", "country": "US", "state": "NY", "display_address": ["558 11th Ave", "New York, NY 10036"]}, "phone": "+12126952112", "display_phone": "(212) 695-2112", "distance": 6193.904840772074}, {"id": "F2R-y69dCJlTiXS0NcElDQ", "alias": "astoria-pizza-factory-astoria", "name": "Astoria Pizza Factory", "image_url": "https://s3-media2.fl.yelpcdn.com/bphoto/JPbXOHNrs1QM73ZUFtl1XA/o.jpg", "is_closed": false, "url": "https://www.yelp.com/biz/astoria-pizza-factory-astoria?adjust_creative=WAxio19XFGhmTEs-1xPo1A&utm_campaign=yelp_api_v3&utm_medium=api_v3_business_search&utm_source=WAxio19XFGhmTEs-1xPo1A", "review_count": 156, "categories": [{"alias": "pizza", "title": "Pizza"}, {"alias": "italian", "title": "Italian"}, {"alias": "catering", "title": "Caterers"}], "rating": 4.5, "coordinates": {"latitude": 40.7786344992522, "longitude": -73.9026485111397}, "transactions": ["delivery", "pickup"], "price": "$", "location": {"address1": "1946 37th St", "address2": "", "address3": "", "city": "Astoria", "zip_code": "11105", "country": "US", "state": "NY", "display_address": ["1946 37th St", "Astoria, NY 11105"]}, "phone": "+17187269112", "display_phone": "(718) 726-9112", "distance": 11217.983524051704}, {"id": "59hEst-eXa_psEtiZMLU6A", "alias": "joes-italian-deli-bronx-3", "name": "Joe's Italian Deli", "image_url": "https://s3-media4.fl.yelpcdn.com/bphoto/Ko7VMNsNIeCWn1mGjtD_5Q/o.jpg", "is_closed": false, "url": "https://www.yelp.com/biz/joes-italian-deli-bronx-3?adjust_creative=WAxio19XFGhmTEs-1xPo1A&utm_campaign=yelp_api_v3&utm_medium=api_v3_business_search&utm_source=WAxio19XFGhmTEs-1xPo1A", "review_count": 128, "categories": [{"alias": "delis", "title": "Delis"}, {"alias": "cheese", "title": "Cheese Shops"}], "rating": 5.0, "coordinates": {"latitude": 40.8544073, "longitude": -73.8848751}, "transactions": ["pickup"], "price": "$$", "location": {"address1": "685 E 187th St", "address2": null, "address3": "", "city": "Bronx", "zip_code": "10458", "country": "US", "state": "NY", "display_address": ["685 E 187th St", "Bronx, NY 10458"]}, "phone": "+17183677979", "display_phone": "(718) 367-7979", "distance": 18970.508332097023}, {"id": "JYNBy2r3LVhJbLHE1bASfg", "alias": "the-smith-new-york-3", "name": "The Smith", "image_url": "https://s3-media4.fl.yelpcdn.com/bphoto/xJ_cTGgxwPs_Tr4cIw_VOA/o.jpg", "is_closed": false, "url": "https://www.yelp.com/biz/the-smith-new-york-3?adjust_creative=WAxio19XFGhmTEs-1xPo1A&utm_campaign=yelp_api_v3&utm_medium=api_v3_business_search&utm_source=WAxio19XFGhmTEs-1xPo1A", "review_count": 1714, "categories": [{"alias": "newamerican", "title": "American (New)"}, {"alias": "breakfast_brunch", "title": "Breakfast & Brunch"}, {"alias": "cocktailbars", "title": "Cocktail Bars"}], "rating": 4.0, "coordinates": {"latitude": 40.7716201269986, "longitude": -73.9818377981476}, "transactions": ["delivery", "pickup"], "price": "$$", "location": {"address1": "1900 Broadway", "address2": "", "address3": "", "city": "New York", "zip_code": "10023", "country": "US", "state": "NY", "display_address": ["1900 Broadway", "New York, NY 10023"]}, "phone": "+12124965700", "display_phone": "(212) 496-5700", "distance": 7432.796735777396}, {"id": "tHW3EwGwai1AiWQ6ZD-wjg", "alias": "industry-kitchen-new-york", "name": "Industry Kitchen", "image_url": "https://s3-media4.fl.yelpcdn.com/bphoto/EAoARKfKhWeDNiFVwZN1Lg/o.jpg", "is_closed": false, "url": "https://www.yelp.com/biz/industry-kitchen-new-york?adjust_creative=WAxio19XFGhmTEs-1xPo1A&utm_campaign=yelp_api_v3&utm_medium=api_v3_business_search&utm_source=WAxio19XFGhmTEs-1xPo1A", "review_count": 615, "categories": [{"alias": "tradamerican", "title": "American (Traditional)"}, {"alias": "breakfast_brunch", "title": "Breakfast & Brunch"}, {"alias": "cocktailbars", "title": "Cocktail Bars"}], "rating": 3.5, "coordinates": {"latitude": 40.7049434740873, "longitude": -74.0048825740814}, "transactions": ["delivery", "pickup"], "price": "$$", "location": {"address1": "70 South St", "address2": "", "address3": "", "city": "New York", "zip_code": "10005", "country": "US", "state": "NY", "display_address": ["70 South St", "New York, NY 10005"]}, "phone": "+12124879600", "display_phone": "(212) 487-9600", "distance": 894.3592805518992}, {"id": "muX5xoh3aOleCrSja_T_FA", "alias": "il-tavolo-di-palmisano-hoboken-2", "name": "IL Tavolo di\u2019 Palmisano", "image_url": "https://s3-media3.fl.yelpcdn.com/bphoto/7-vgvOTEnvjK-PEw359MQA/o.jpg", "is_closed": false, "url": "https://www.yelp.com/biz/il-tavolo-di-palmisano-hoboken-2?adjust_creative=WAxio19XFGhmTEs-1xPo1A&utm_campaign=yelp_api_v3&utm_medium=api_v3_business_search&utm_source=WAxio19XFGhmTEs-1xPo1A", "review_count": 48, "categories": [{"alias": "italian", "title": "Italian"}], "rating": 4.5, "coordinates": {"latitude": 40.74571, "longitude": -74.03346}, "transactions": ["delivery", "pickup"], "price": "$$", "location": {"address1": "700 Clinton St", "address2": null, "address3": null, "city": "Hoboken", "zip_code": "07030", "country": "US", "state": "NJ", "display_address": ["700 Clinton St", "Hoboken, NJ 07030"]}, "phone": "+12013455980", "display_phone": "(201) 345-5980", "distance": 5564.087208129049}, {"id": "RTbltj7zrc3mL2CIQvNUpg", "alias": "grandaisy-bakery-new-york-4", "name": "Grandaisy Bakery", "image_url": "https://s3-media2.fl.yelpcdn.com/bphoto/Zb6ReyEt1CfsC5rOLAupQw/o.jpg", "is_closed": false, "url": "https://www.yelp.com/biz/grandaisy-bakery-new-york-4?adjust_creative=WAxio19XFGhmTEs-1xPo1A&utm_campaign=yelp_api_v3&utm_medium=api_v3_business_search&utm_source=WAxio19XFGhmTEs-1xPo1A", "review_count": 116, "categories": [{"alias": "bakeries", "title": "Bakeries"}, {"alias": "pizza", "title": "Pizza"}, {"alias": "coffee", "title": "Coffee & Tea"}], "rating": 4.0, "coordinates": {"latitude": 40.720041, "longitude": -74.005867765337}, "transactions": ["delivery", "pickup"], "price": "$", "location": {"address1": "250 W Broadway", "address2": "", "address3": "", "city": "New York", "zip_code": "10013", "country": "US", "state": "NY", "display_address": ["250 W Broadway", "New York, NY 10013"]}, "phone": "+12123349435", "display_phone": "(212) 334-9435", "distance": 1893.6428868035466}, {"id": "Bh1JBgQWZl9zct46uw_FzQ", "alias": "charlie-bird-new-york", "name": "Charlie Bird", "image_url": "https://s3-media2.fl.yelpcdn.com/bphoto/6SVsXN-v0Uqoi-NkDpthRg/o.jpg", "is_closed": false, "url": "https://www.yelp.com/biz/charlie-bird-new-york?adjust_creative=WAxio19XFGhmTEs-1xPo1A&utm_campaign=yelp_api_v3&utm_medium=api_v3_business_search&utm_source=WAxio19XFGhmTEs-1xPo1A", "review_count": 462, "categories": [{"alias": "italian", "title": "Italian"}], "rating": 3.5, "coordinates": {"latitude": 40.72781, "longitude": -74.002861}, "transactions": [], "price": "$$", "location": {"address1": "5 King St", "address2": null, "address3": "", "city": "New York", "zip_code": "10012", "country": "US", "state": "NY", "display_address": ["5 King St", "New York, NY 10012"]}, "phone": "+12122357133", "display_phone": "(212) 235-7133", "distance": 2586.7950545462}, {"id": "PxDPLaLj8349G5MsyMmV7w", "alias": "l-italiano-trattoria-oakland-gardens", "name": "L' Italiano Trattoria", "image_url": "https://s3-media2.fl.yelpcdn.com/bphoto/gLDA3zQvMDAhx5QZKeEsEw/o.jpg", "is_closed": false, "url": "https://www.yelp.com/biz/l-italiano-trattoria-oakland-gardens?adjust_creative=WAxio19XFGhmTEs-1xPo1A&utm_campaign=yelp_api_v3&utm_medium=api_v3_business_search&utm_source=WAxio19XFGhmTEs-1xPo1A", "review_count": 62, "categories": [{"alias": "italian", "title": "Italian"}], "rating": 3.5, "coordinates": {"latitude": 40.74809, "longitude": -73.7613499}, "transactions": [], "price": "$$", "location": {"address1": "216-01 Horace Harding Expwy N", "address2": "", "address3": "", "city": "Oakland Gardens", "zip_code": "11364", "country": "US", "state": "NY", "display_address": ["216-01 Horace Harding Expwy N", "Oakland Gardens, NY 11364"]}, "phone": "+17182242536", "display_phone": "(718) 224-2536", "distance": 20193.684436765237}, {"id": "kDJbzzmCEjFbyDQ-lSygvw", "alias": "fresh-salt-new-york", "name": "Fresh Salt", "image_url": "https://s3-media3.fl.yelpcdn.com/bphoto/UL2XnK_9pl0-kxHjUpjweg/o.jpg", "is_closed": false, "url": "https://www.yelp.com/biz/fresh-salt-new-york?adjust_creative=WAxio19XFGhmTEs-1xPo1A&utm_campaign=yelp_api_v3&utm_medium=api_v3_business_search&utm_source=WAxio19XFGhmTEs-1xPo1A", "review_count": 395, "categories": [{"alias": "bars", "title": "Bars"}, {"alias": "newamerican", "title": "American (New)"}], "rating": 4.0, "coordinates": {"latitude": 40.70707, "longitude": -74.00244}, "transactions": ["delivery", "pickup"], "price": "$$", "location": {"address1": "146 Beekman St", "address2": "", "address3": "", "city": "New York", "zip_code": "10038", "country": "US", "state": "NY", "display_address": ["146 Beekman St", "New York, NY 10038"]}, "phone": "+12129620053", "display_phone": "(212) 962-0053", "distance": 710.677389267444}, {"id": "8Yv1jmEmwaB5-rsIVIXAig", "alias": "la-traviata-pizzeria-new-york-2", "name": "LA Traviata Pizzeria", "image_url": "https://s3-media4.fl.yelpcdn.com/bphoto/KQRNd4gRwseB0baOka1fMw/o.jpg", "is_closed": false, "url": "https://www.yelp.com/biz/la-traviata-pizzeria-new-york-2?adjust_creative=WAxio19XFGhmTEs-1xPo1A&utm_campaign=yelp_api_v3&utm_medium=api_v3_business_search&utm_source=WAxio19XFGhmTEs-1xPo1A", "review_count": 175, "categories": [{"alias": "pizza", "title": "Pizza"}], "rating": 3.5, "coordinates": {"latitude": 40.77505, "longitude": -73.98088}, "transactions": ["delivery", "pickup"], "price": "$", "location": {"address1": "101 W 68th St", "address2": "", "address3": "", "city": "New York", "zip_code": "10023", "country": "US", "state": "NY", "display_address": ["101 W 68th St", "New York, NY 10023"]}, "phone": "+12127211101", "display_phone": "(212) 721-1101", "distance": 7824.32643786717}, {"id": "ps2hjcinEdgnGx-XJ8moTg", "alias": "pasta-pasta-bronx", "name": "Pasta-Pasta", "image_url": "https://s3-media1.fl.yelpcdn.com/bphoto/RZmPg-NZ-aotqo2OrM8AEQ/o.jpg", "is_closed": false, "url": "https://www.yelp.com/biz/pasta-pasta-bronx?adjust_creative=WAxio19XFGhmTEs-1xPo1A&utm_campaign=yelp_api_v3&utm_medium=api_v3_business_search&utm_source=WAxio19XFGhmTEs-1xPo1A", "review_count": 66, "categories": [{"alias": "italian", "title": "Italian"}], "rating": 4.0, "coordinates": {"latitude": 40.8546061, "longitude": -73.8549207}, "transactions": [], "price": "$$", "location": {"address1": "2023 Williamsbridge Rd", "address2": "", "address3": "", "city": "Bronx", "zip_code": "10461", "country": "US", "state": "NY", "display_address": ["2023 Williamsbridge Rd", "Bronx, NY 10461"]}, "phone": "+17188929634", "display_phone": "(718) 892-9634", "distance": 20320.119829645788}, {"id": "461hss6jSwjN8FdiZgN6wA", "alias": "the-original-goodfellas-brick-oven-pizza-staten-island-2", "name": "The Original Goodfella's Brick Oven Pizza", "image_url": "https://s3-media1.fl.yelpcdn.com/bphoto/6DQT6mdKn05HGmDapqlRgA/o.jpg", "is_closed": false, "url": "https://www.yelp.com/biz/the-original-goodfellas-brick-oven-pizza-staten-island-2?adjust_creative=WAxio19XFGhmTEs-1xPo1A&utm_campaign=yelp_api_v3&utm_medium=api_v3_business_search&utm_source=WAxio19XFGhmTEs-1xPo1A", "review_count": 260, "categories": [{"alias": "pizza", "title": "Pizza"}, {"alias": "italian", "title": "Italian"}, {"alias": "bars", "title": "Bars"}], "rating": 4.0, "coordinates": {"latitude": 40.586785, "longitude": -74.091438}, "transactions": ["delivery", "pickup"], "price": "$$", "location": {"address1": "1718 Hylan Blvd", "address2": "", "address3": "", "city": "Staten Island", "zip_code": "10305", "country": "US", "state": "NY", "display_address": ["1718 Hylan Blvd", "Staten Island, NY 10305"]}, "phone": "+17189872422", "display_phone": "(718) 987-2422", "distance": 15532.71466648253}, {"id": "BnD4rXxjArNd9q5sC8t4uQ", "alias": "the-longshoreman-new-york", "name": "The Longshoreman", "image_url": "https://s3-media4.fl.yelpcdn.com/bphoto/Jy9SQVzv8oDhWubvUjLa_A/o.jpg", "is_closed": false, "url": "https://www.yelp.com/biz/the-longshoreman-new-york?adjust_creative=WAxio19XFGhmTEs-1xPo1A&utm_campaign=yelp_api_v3&utm_medium=api_v3_business_search&utm_source=WAxio19XFGhmTEs-1xPo1A", "review_count": 57, "categories": [{"alias": "italian", "title": "Italian"}], "rating": 4.5, "coordinates": {"latitude": 40.68472, "longitude": -74.0027}, "transactions": [], "location": {"address1": "215 Columbia St", "address2": null, "address3": "", "city": "New York", "zip_code": "11231", "country": "US", "state": "NY", "display_address": ["215 Columbia St", "New York, NY 11231"]}, "phone": "+19292950285", "display_phone": "(929) 295-0285", "distance": 2412.218171966761}, {"id": "JZxGDv-ZhWnfMwlkboqG6w", "alias": "nuccis-south-staten-island", "name": "Nucci's South", "image_url": "https://s3-media1.fl.yelpcdn.com/bphoto/1twR3v3KOi5bkCel8KmNdQ/o.jpg", "is_closed": false, "url": "https://www.yelp.com/biz/nuccis-south-staten-island?adjust_creative=WAxio19XFGhmTEs-1xPo1A&utm_campaign=yelp_api_v3&utm_medium=api_v3_business_search&utm_source=WAxio19XFGhmTEs-1xPo1A", "review_count": 118, "categories": [{"alias": "italian", "title": "Italian"}], "rating": 4.0, "coordinates": {"latitude": 40.5241224873809, "longitude": -74.2385790765824}, "transactions": ["delivery", "pickup"], "price": "$$", "location": {"address1": "4848 Arthur Kill Rd", "address2": "", "address3": "", "city": "Staten Island", "zip_code": "10309", "country": "US", "state": "NY", "display_address": ["4848 Arthur Kill Rd", "Staten Island, NY 10309"]}, "phone": "+17189673600", "display_phone": "(718) 967-3600", "distance": 28838.930001714518}, {"id": "-UcF6qcgG6a36tcYDCcWGw", "alias": "buon-cafe-and-trattoria-middle-village-2", "name": "Buon Cafe & Trattoria", "image_url": "https://s3-media3.fl.yelpcdn.com/bphoto/etCcZlET5fDa-YPOTkWEEg/o.jpg", "is_closed": false, "url": "https://www.yelp.com/biz/buon-cafe-and-trattoria-middle-village-2?adjust_creative=WAxio19XFGhmTEs-1xPo1A&utm_campaign=yelp_api_v3&utm_medium=api_v3_business_search&utm_source=WAxio19XFGhmTEs-1xPo1A", "review_count": 133, "categories": [{"alias": "breakfast_brunch", "title": "Breakfast & Brunch"}, {"alias": "italian", "title": "Italian"}, {"alias": "sandwiches", "title": "Sandwiches"}], "rating": 3.5, "coordinates": {"latitude": 40.72193, "longitude": -73.88532}, "transactions": ["delivery", "pickup"], "price": "$$", "location": {"address1": "74-02 Eliot Ave", "address2": "", "address3": "", "city": "Middle Village", "zip_code": "11379", "country": "US", "state": "NY", "display_address": ["74-02 Eliot Ave", "Middle Village, NY 11379"]}, "phone": "+17184782200", "display_phone": "(718) 478-2200", "distance": 9364.055728176307}, {"id": "6BC5LQI4Cg3KChkgigo9sA", "alias": "lo-duca-pizza-brooklyn", "name": "Lo Duca Pizza", "image_url": "https://s3-media1.fl.yelpcdn.com/bphoto/TzsRRoCbP1MdWug79I7lRQ/o.jpg", "is_closed": false, "url": "https://www.yelp.com/biz/lo-duca-pizza-brooklyn?adjust_creative=WAxio19XFGhmTEs-1xPo1A&utm_campaign=yelp_api_v3&utm_medium=api_v3_business_search&utm_source=WAxio19XFGhmTEs-1xPo1A", "review_count": 112, "categories": [{"alias": "pizza", "title": "Pizza"}], "rating": 4.5, "coordinates": {"latitude": 40.6349400235262, "longitude": -73.9625812061059}, "transactions": [], "price": "$", "location": {"address1": "14 Newkirk Plz", "address2": "", "address3": "", "city": "Brooklyn", "zip_code": "11226", "country": "US", "state": "NY", "display_address": ["14 Newkirk Plz", "Brooklyn, NY 11226"]}, "phone": "+17188591501", "display_phone": "(718) 859-1501", "distance": 8283.427380652798}, {"id": "ovN5UGDSl-9zD2lZ2-lntQ", "alias": "trattoria-vivolo-harrison", "name": "Trattoria Vivolo", "image_url": "https://s3-media1.fl.yelpcdn.com/bphoto/B17zrojdIjWg2RIMvKQb0A/o.jpg", "is_closed": false, "url": "https://www.yelp.com/biz/trattoria-vivolo-harrison?adjust_creative=WAxio19XFGhmTEs-1xPo1A&utm_campaign=yelp_api_v3&utm_medium=api_v3_business_search&utm_source=WAxio19XFGhmTEs-1xPo1A", "review_count": 125, "categories": [{"alias": "italian", "title": "Italian"}], "rating": 4.5, "coordinates": {"latitude": 40.96891, "longitude": -73.71137}, "transactions": ["delivery"], "price": "$$", "location": {"address1": "301 Halstead Ave", "address2": "", "address3": "", "city": "Harrison", "zip_code": "10528", "country": "US", "state": "NY", "display_address": ["301 Halstead Ave", "Harrison, NY 10528"]}, "phone": "+19148356199", "display_phone": "(914) 835-6199", "distance": 37749.26576088885}, {"id": "Zjj8JkJm0yRyrUFffr7Eww", "alias": "midici-neapolitan-pizza-brooklyn", "name": "MidiCi Neapolitan Pizza", "image_url": "https://s3-media3.fl.yelpcdn.com/bphoto/bwoLy3pM9l5Avr6xlve0Aw/o.jpg", "is_closed": false, "url": "https://www.yelp.com/biz/midici-neapolitan-pizza-brooklyn?adjust_creative=WAxio19XFGhmTEs-1xPo1A&utm_campaign=yelp_api_v3&utm_medium=api_v3_business_search&utm_source=WAxio19XFGhmTEs-1xPo1A", "review_count": 60, "categories": [{"alias": "pizza", "title": "Pizza"}], "rating": 4.5, "coordinates": {"latitude": 40.71529, "longitude": -73.95858}, "transactions": ["delivery", "pickup"], "price": "$$", "location": {"address1": "174 N 4th St", "address2": "", "address3": "", "city": "Brooklyn", "zip_code": "11211", "country": "US", "state": "NY", "display_address": ["174 N 4th St", "Brooklyn, NY 11211"]}, "phone": "+17187822020", "display_phone": "(718) 782-2020", "distance": 3203.565774800785}, {"id": "2m0-ATP_W3-ycyTNR4sCLg", "alias": "bread-and-salt-jersey-city-2", "name": "Bread and Salt", "image_url": "https://s3-media1.fl.yelpcdn.com/bphoto/3NbR1IZrIy7GR4nqR8gj4g/o.jpg", "is_closed": false, "url": "https://www.yelp.com/biz/bread-and-salt-jersey-city-2?adjust_creative=WAxio19XFGhmTEs-1xPo1A&utm_campaign=yelp_api_v3&utm_medium=api_v3_business_search&utm_source=WAxio19XFGhmTEs-1xPo1A", "review_count": 109, "categories": [{"alias": "pizza", "title": "Pizza"}, {"alias": "pastashops", "title": "Pasta Shops"}], "rating": 4.0, "coordinates": {"latitude": 40.7435428136099, "longitude": -74.0447338297963}, "transactions": ["delivery"], "price": "$$", "location": {"address1": "437 Palisade Ave", "address2": "", "address3": null, "city": "Jersey City", "zip_code": "07307", "country": "US", "state": "NJ", "display_address": ["437 Palisade Ave", "Jersey City, NJ 07307"]}, "phone": "+12017922618", "display_phone": "(201) 792-2618", "distance": 6001.155838196033}, {"id": "Gc7OVEIs4HodL4hw9U3C3w", "alias": "copinette-new-york-3", "name": "Copinette", "image_url": "https://s3-media3.fl.yelpcdn.com/bphoto/_S8coii-sUY_mD7_7hXK-w/o.jpg", "is_closed": false, "url": "https://www.yelp.com/biz/copinette-new-york-3?adjust_creative=WAxio19XFGhmTEs-1xPo1A&utm_campaign=yelp_api_v3&utm_medium=api_v3_business_search&utm_source=WAxio19XFGhmTEs-1xPo1A", "review_count": 116, "categories": [{"alias": "french", "title": "French"}, {"alias": "tradamerican", "title": "American (Traditional)"}, {"alias": "seafood", "title": "Seafood"}], "rating": 4.0, "coordinates": {"latitude": 40.75407, "longitude": -73.96623}, "transactions": ["delivery", "pickup"], "location": {"address1": "891 1st Ave", "address2": null, "address3": null, "city": "New York", "zip_code": "10022", "country": "US", "state": "NY", "display_address": ["891 1st Ave", "New York, NY 10022"]}, "phone": "+12129034001", "display_phone": "(212) 903-4001", "distance": 5908.593694327018}, {"id": "DLsqhCGZmEo48zsgduCbpQ", "alias": "lombardis-pizza-new-york-3", "name": "Lombardi's pizza", "image_url": "https://s3-media2.fl.yelpcdn.com/bphoto/-8Id7zSey3eX2z7dsinGGg/o.jpg", "is_closed": false, "url": "https://www.yelp.com/biz/lombardis-pizza-new-york-3?adjust_creative=WAxio19XFGhmTEs-1xPo1A&utm_campaign=yelp_api_v3&utm_medium=api_v3_business_search&utm_source=WAxio19XFGhmTEs-1xPo1A", "review_count": 146, "categories": [{"alias": "pizza", "title": "Pizza"}], "rating": 4.0, "coordinates": {"latitude": 40.74623, "longitude": -73.9974}, "transactions": ["delivery", "pickup"], "price": "$$", "location": {"address1": "290 8th Ave", "address2": "", "address3": null, "city": "New York", "zip_code": "10001", "country": "US", "state": "NY", "display_address": ["290 8th Ave", "New York, NY 10001"]}, "phone": "+12122561973", "display_phone": "(212) 256-1973", "distance": 4544.250019376753}], "total": 8200, "region": {"center": {"longitude": -73.99429321289062, "latitude": 40.70544486444615}}}