{"businesses": [{"id": "pQo-KWQxuH26y0IzZbQj0A", "alias": "joe-and-sals-pizza-brooklyn", "name": "Joe & Sal's Pizza", "image_url": "https://s3-media4.fl.yelpcdn.com/bphoto/V4YjC0FeTG15Pkb12ypLgQ/o.jpg", "is_closed": false, "url": "https://www.yelp.com/biz/joe-and-sals-pizza-brooklyn?adjust_creative=WAxio19XFGhmTEs-1xPo1A&utm_campaign=yelp_api_v3&utm_medium=api_v3_business_search&utm_source=WAxio19XFGhmTEs-1xPo1A", "review_count": 140, "categories": [{"alias": "pizza", "title": "Pizza"}, {"alias": "salad", "title": "Salad"}, {"alias": "pastashops", "title": "Pasta Shops"}], "rating": 4.0, "coordinates": {"latitude": 40.669299, "longitude": -73.958753}, "transactions": ["delivery", "pickup"], "price": "$", "location": {"address1": "842 Franklin Ave", "address2": "", "address3": null, "city": "Brooklyn", "zip_code": "11225", "country": "US", "state": "NY", "display_address": ["842 Franklin Ave", "Brooklyn, NY 11225"]}, "phone": "+17184848732", "display_phone": "(718) 484-8732", "distance": 5013.289226575209}, {"id": "B0eYXTeHk4405VdIplHK_A", "alias": "dolce-fantasia-staten-island", "name": "Dolce Fantasia", "image_url": "https://s3-media1.fl.yelpcdn.com/bphoto/CYSocgHTvkf7Z4STS12GZg/o.jpg", "is_closed": false, "url": "https://www.yelp.com/biz/dolce-fantasia-staten-island?adjust_creative=WAxio19XFGhmTEs-1xPo1A&utm_campaign=yelp_api_v3&utm_medium=api_v3_business_search&utm_source=WAxio19XFGhmTEs-1xPo1A", "review_count": 41, "categories": [{"alias": "italian", "title": "Italian"}, {"alias": "cafes", "title": "Cafes"}], "rating": 4.5, "coordinates": {"latitude": 40.62627, "longitude": -74.13019}, "transactions": ["delivery", "pickup"], "location": {"address1": "1210 Forest Ave", "address2": null, "address3": "", "city": "Staten Island", "zip_code": "10310", "country": "US", "state": "NY", "display_address": ["1210 Forest Ave", "Staten Island, NY 10310"]}, "phone": "+17184201411", "display_phone": "(718) 420-1411", "distance": 14459.479757156694}, {"id": "Q-yTbpW4vrq80oRW40W_Pg", "alias": "l-albero-dei-gelati-brooklyn-2", "name": "L'albero Dei Gelati", "image_url": "https://s3-media4.fl.yelpcdn.com/bphoto/hTkjd107dae8X4F6bZEFXQ/o.jpg", "is_closed": false, "url": "https://www.yelp.com/biz/l-albero-dei-gelati-brooklyn-2?adjust_creative=WAxio19XFGhmTEs-1xPo1A&utm_campaign=yelp_api_v3&utm_medium=api_v3_business_search&utm_source=WAxio19XFGhmTEs-1xPo1A", "review_count": 270, "categories": [{"alias": "gelato", "title": "Gelato"}, {"alias": "bars", "title": "Bars"}, {"alias": "italian", "title": "Italian"}], "rating": 4.5, "coordinates": {"latitude": 40.671932, "longitude": -73.9836569}, "transactions": ["delivery", "pickup"], "price": "$$", "location": {"address1": "341 5th Ave", "address2": null, "address3": "", "city": "Brooklyn", "zip_code": "11215", "country": "US", "state": "NY", "display_address": ["341 5th Ave", "Brooklyn, NY 11215"]}, "phone": "+17187882288", "display_phone": "(718) 788-2288", "distance": 3832.8484006846074}, {"id": "tjF4QzhBnJex6Ap2PnDW7g", "alias": "sorriso-italian-pork-store-astoria", "name": "Sorriso Italian Pork Store", "image_url": "https://s3-media2.fl.yelpcdn.com/bphoto/2Q4aOFMRD6TjAv3Rtqgfew/o.jpg", "is_closed": false, "url": "https://www.yelp.com/biz/sorriso-italian-pork-store-astoria?adjust_creative=WAxio19XFGhmTEs-1xPo1A&utm_campaign=yelp_api_v3&utm_medium=api_v3_business_search&utm_source=WAxio19XFGhmTEs-1xPo1A", "review_count": 343, "categories": [{"alias": "meats", "title": "Meat Shops"}, {"alias": "delis", "title": "Delis"}, {"alias": "sandwiches", "title": "Sandwiches"}], "rating": 4.5, "coordinates": {"latitude": 40.7621401, "longitude": -73.9116109}, "transactions": ["delivery", "pickup"], "price": "$", "location": {"address1": "4416 30th Ave", "address2": "", "address3": "", "city": "Astoria", "zip_code": "11103", "country": "US", "state": "NY", "display_address": ["4416 30th Ave", "Astoria, NY 11103"]}, "phone": "+17187284392", "display_phone": "(718) 728-4392", "distance": 9399.416539192323}, {"id": "rhCs1nF5KTNwx-4YeyoK3g", "alias": "bartolinos-fine-italian-pizza-astoria-11", "name": "Bartolino's Fine Italian Pizza", "image_url": "https://s3-media3.fl.yelpcdn.com/bphoto/qLA0NwC1zStw6XFUIcoO9A/o.jpg", "is_closed": false, "url": "https://www.yelp.com/biz/bartolinos-fine-italian-pizza-astoria-11?adjust_creative=WAxio19XFGhmTEs-1xPo1A&utm_campaign=yelp_api_v3&utm_medium=api_v3_business_search&utm_source=WAxio19XFGhmTEs-1xPo1A", "review_count": 43, "categories": [{"alias": "pizza", "title": "Pizza"}, {"alias": "italian", "title": "Italian"}], "rating": 4.0, "coordinates": {"latitude": 40.7607386113415, "longitude": -73.9223789038732}, "transactions": ["delivery", "pickup"], "price": "$$", "location": {"address1": "3411 Broadway", "address2": null, "address3": null, "city": "Astoria", "zip_code": "11106", "country": "US", "state": "NY", "display_address": ["3411 Broadway", "Astoria, NY 11106"]}, "phone": "+13477306573", "display_phone": "(347) 730-6573", "distance": 8632.435373798675}, {"id": "fBDnGXpDXFAgpZDB0XDSvQ", "alias": "cappones-salumeria-new-york-2", "name": "Cappone's Salumeria", "image_url": "https://s3-media1.fl.yelpcdn.com/bphoto/xTxpx3ORGumPCACGXgJL-g/o.jpg", "is_closed": false, "url": "https://www.yelp.com/biz/cappones-salumeria-new-york-2?adjust_creative=WAxio19XFGhmTEs-1xPo1A&utm_campaign=yelp_api_v3&utm_medium=api_v3_business_search&utm_source=WAxio19XFGhmTEs-1xPo1A", "review_count": 67, "categories": [{"alias": "italian", "title": "Italian"}, {"alias": "sandwiches", "title": "Sandwiches"}], "rating": 4.0, "coordinates": {"latitude": 40.742095, "longitude": -74.005587}, "transactions": ["delivery", "pickup"], "price": "$$", "location": {"address1": "75 9th Ave", "address2": null, "address3": "Chelsea Market", "city": "New York", "zip_code": "10011", "country": "US", "state": "NY", "display_address": ["75 9th Ave", "Chelsea Market", "New York, NY 10011"]}, "phone": "+12124637300", "display_phone": "(212) 463-7300", "distance": 4184.961609208424}, {"id": "NBgDoMiF4tj5aS7V7zayoA", "alias": "antica-ristorante-new-york-2", "name": "Antica Ristorante", "image_url": "https://s3-media3.fl.yelpcdn.com/bphoto/viMEK_0F19wq-gTD-PGebw/o.jpg", "is_closed": false, "url": "https://www.yelp.com/biz/antica-ristorante-new-york-2?adjust_creative=WAxio19XFGhmTEs-1xPo1A&utm_campaign=yelp_api_v3&utm_medium=api_v3_business_search&utm_source=WAxio19XFGhmTEs-1xPo1A", "review_count": 47, "categories": [{"alias": "italian", "title": "Italian"}], "rating": 3.5, "coordinates": {"latitude": 40.7206611633301, "longitude": -74.0043869018555}, "transactions": ["delivery", "pickup"], "price": "$$", "location": {"address1": "370 Canal St", "address2": "", "address3": "", "city": "New York", "zip_code": "10013", "country": "US", "state": "NY", "display_address": ["370 Canal St", "New York, NY 10013"]}, "phone": "+16464392460", "display_phone": "(646) 439-2460", "distance": 1893.3894454210415}, {"id": "O6RBNHBleB0mCb2dAanxCw", "alias": "casa-lever-new-york", "name": "Casa Lever", "image_url": "https://s3-media2.fl.yelpcdn.com/bphoto/K5cWqfb3PuqpgVI-t_5BPA/o.jpg", "is_closed": false, "url": "https://www.yelp.com/biz/casa-lever-new-york?adjust_creative=WAxio19XFGhmTEs-1xPo1A&utm_campaign=yelp_api_v3&utm_medium=api_v3_business_search&utm_source=WAxio19XFGhmTEs-1xPo1A", "review_count": 226, "categories": [{"alias": "italian", "title": "Italian"}, {"alias": "lounges", "title": "Lounges"}], "rating": 4.0, "coordinates": {"latitude": 40.759741, "longitude": -73.972956}, "transactions": [], "price": "$$$", "location": {"address1": "390 Park Ave", "address2": "", "address3": "", "city": "New York", "zip_code": "10022", "country": "US", "state": "NY", "display_address": ["390 Park Ave", "New York, NY 10022"]}, "phone": "+12128882700", "display_phone": "(212) 888-2700", "distance": 6299.450564125773}, {"id": "OUJkCwzbtw16_KZAzYgE5w", "alias": "grimaldis-new-york-4", "name": "Grimaldi's", "image_url": "https://s3-media4.fl.yelpcdn.com/bphoto/EpvMw2VA7ZWoD8bMZF5SPw/o.jpg", "is_closed": false, "url": "https://www.yelp.com/biz/grimaldis-new-york-4?adjust_creative=WAxio19XFGhmTEs-1xPo1A&utm_campaign=yelp_api_v3&utm_medium=api_v3_business_search&utm_source=WAxio19XFGhmTEs-1xPo1A", "review_count": 756, "categories": [{"alias": "pizza", "title": "Pizza"}], "rating": 3.5, "coordinates": {"latitude": 40.7412157, "longitude": -73.9938935}, "transactions": ["delivery", "pickup"], "price": "$$", "location": {"address1": "656 6th Ave", "address2": "", "address3": "", "city": "New York", "zip_code": "10010", "country": "US", "state": "NY", "display_address": ["656 6th Ave", "New York, NY 10010"]}, "phone": "+16464845665", "display_phone": "(646) 484-5665", "distance": 3977.6736509824163}, {"id": "Dng_LID2JNnc6M6A1FB19Q", "alias": "come-prima-ristorante-new-york-2", "name": "Come Prima Ristorante", "image_url": "https://s3-media1.fl.yelpcdn.com/bphoto/GJwN9p24zOqbBkANXqXqaA/o.jpg", "is_closed": false, "url": "https://www.yelp.com/biz/come-prima-ristorante-new-york-2?adjust_creative=WAxio19XFGhmTEs-1xPo1A&utm_campaign=yelp_api_v3&utm_medium=api_v3_business_search&utm_source=WAxio19XFGhmTEs-1xPo1A", "review_count": 83, "categories": [{"alias": "bars", "title": "Bars"}, {"alias": "italian", "title": "Italian"}], "rating": 4.5, "coordinates": {"latitude": 40.7721165011105, "longitude": -73.965037390213}, "transactions": [], "price": "$$$", "location": {"address1": "903 Madison Ave", "address2": null, "address3": "", "city": "New York", "zip_code": "10021", "country": "US", "state": "NY", "display_address": ["903 Madison Ave", "New York, NY 10021"]}, "phone": "+12125177700", "display_phone": "(212) 517-7700", "distance": 7812.556341653877}, {"id": "HhY7QDRu7EwXTDY4WT1wSA", "alias": "serra-by-birreria-at-eataly-flatiron-new-york", "name": "Serra by Birreria at Eataly Flatiron", "image_url": "https://s3-media4.fl.yelpcdn.com/bphoto/X2PEHBvv7A2zAwF2-F9fGw/o.jpg", "is_closed": false, "url": "https://www.yelp.com/biz/serra-by-birreria-at-eataly-flatiron-new-york?adjust_creative=WAxio19XFGhmTEs-1xPo1A&utm_campaign=yelp_api_v3&utm_medium=api_v3_business_search&utm_source=WAxio19XFGhmTEs-1xPo1A", "review_count": 1487, "categories": [{"alias": "italian", "title": "Italian"}, {"alias": "bars", "title": "Bars"}], "rating": 3.0, "coordinates": {"latitude": 40.74197, "longitude": -73.9895}, "transactions": [], "price": "$$", "location": {"address1": "200 5th Ave", "address2": "Fl 14", "address3": null, "city": "New York", "zip_code": "10010", "country": "US", "state": "NY", "display_address": ["200 5th Ave", "Fl 14", "New York, NY 10010"]}, "phone": "+12129378910", "display_phone": "(212) 937-8910", "distance": 4080.5302130104465}, {"id": "oaowryQAF13ka42VSb8c1w", "alias": "spolinis-kew-gardens", "name": "Spolini's", "image_url": "https://s3-media3.fl.yelpcdn.com/bphoto/E9_GMuzT7kK5A1ekbeihpA/o.jpg", "is_closed": false, "url": "https://www.yelp.com/biz/spolinis-kew-gardens?adjust_creative=WAxio19XFGhmTEs-1xPo1A&utm_campaign=yelp_api_v3&utm_medium=api_v3_business_search&utm_source=WAxio19XFGhmTEs-1xPo1A", "review_count": 105, "categories": [{"alias": "italian", "title": "Italian"}], "rating": 3.0, "coordinates": {"latitude": 40.7074477, "longitude": -73.8354456}, "transactions": ["pickup"], "price": "$$$", "location": {"address1": "11625 Metropolitan Ave", "address2": "", "address3": "", "city": "Kew Gardens", "zip_code": "11418", "country": "US", "state": "NY", "display_address": ["11625 Metropolitan Ave", "Kew Gardens, NY 11418"]}, "phone": "+17188055852", "display_phone": "(718) 805-5852", "distance": 13401.256524221715}, {"id": "505bv6h3VnN6SekdHCr8Sw", "alias": "nocello-new-york", "name": "Nocello", "image_url": "https://s3-media3.fl.yelpcdn.com/bphoto/Doa0Bh3VHYvg20H-ZnhHqA/o.jpg", "is_closed": false, "url": "https://www.yelp.com/biz/nocello-new-york?adjust_creative=WAxio19XFGhmTEs-1xPo1A&utm_campaign=yelp_api_v3&utm_medium=api_v3_business_search&utm_source=WAxio19XFGhmTEs-1xPo1A", "review_count": 154, "categories": [{"alias": "italian", "title": "Italian"}], "rating": 3.5, "coordinates": {"latitude": 40.765363, "longitude": -73.983393}, "transactions": ["restaurant_reservation", "delivery", "pickup"], "price": "$$$", "location": {"address1": "257 W 55th St", "address2": "", "address3": "", "city": "New York", "zip_code": "10019", "country": "US", "state": "NY", "display_address": ["257 W 55th St", "New York, NY 10019"]}, "phone": "+12127130224", "display_phone": "(212) 713-0224", "distance": 6725.58637004561}, {"id": "gzRYzr57wh8NmvySbFAioQ", "alias": "pulia-ristorante-brooklyn-3", "name": "Pulia Ristorante", "image_url": "https://s3-media3.fl.yelpcdn.com/bphoto/_8l8yDlW2p-6pt-vVJl3lA/o.jpg", "is_closed": false, "url": "https://www.yelp.com/biz/pulia-ristorante-brooklyn-3?adjust_creative=WAxio19XFGhmTEs-1xPo1A&utm_campaign=yelp_api_v3&utm_medium=api_v3_business_search&utm_source=WAxio19XFGhmTEs-1xPo1A", "review_count": 19, "categories": [{"alias": "italian", "title": "Italian"}, {"alias": "coffee", "title": "Coffee & Tea"}, {"alias": "breakfast_brunch", "title": "Breakfast & Brunch"}], "rating": 5.0, "coordinates": {"latitude": 40.6669558, "longitude": -73.9918603}, "transactions": ["restaurant_reservation", "delivery", "pickup"], "location": {"address1": "548 4th Ave", "address2": null, "address3": "", "city": "Brooklyn", "zip_code": "11215", "country": "US", "state": "NY", "display_address": ["548 4th Ave", "Brooklyn, NY 11215"]}, "phone": "+17187881140", "display_phone": "(718) 788-1140", "distance": 4284.69747639138}, {"id": "uzEhT55QIdk9YbfFwmlRzQ", "alias": "altesi-ristorante-new-york", "name": "Altesi Ristorante", "image_url": "https://s3-media1.fl.yelpcdn.com/bphoto/XvbQKFYVMiN_sZaBe4x1vw/o.jpg", "is_closed": false, "url": "https://www.yelp.com/biz/altesi-ristorante-new-york?adjust_creative=WAxio19XFGhmTEs-1xPo1A&utm_campaign=yelp_api_v3&utm_medium=api_v3_business_search&utm_source=WAxio19XFGhmTEs-1xPo1A", "review_count": 63, "categories": [{"alias": "italian", "title": "Italian"}, {"alias": "wine_bars", "title": "Wine Bars"}], "rating": 3.5, "coordinates": {"latitude": 40.76667, "longitude": -73.96959}, "transactions": ["delivery", "pickup"], "price": "$$$", "location": {"address1": "26 E 64th St", "address2": "", "address3": "", "city": "New York", "zip_code": "10065", "country": "US", "state": "NY", "display_address": ["26 E 64th St", "New York, NY 10065"]}, "phone": "+12127598900", "display_phone": "(212) 759-8900", "distance": 7120.074751309985}, {"id": "c6bE9vQeFniCeGpBaNQw2w", "alias": "bocelli-staten-island", "name": "Bocelli", "image_url": "https://s3-media2.fl.yelpcdn.com/bphoto/eSOVYfwD_rN0MBbUqi5sJA/o.jpg", "is_closed": false, "url": "https://www.yelp.com/biz/bocelli-staten-island?adjust_creative=WAxio19XFGhmTEs-1xPo1A&utm_campaign=yelp_api_v3&utm_medium=api_v3_business_search&utm_source=WAxio19XFGhmTEs-1xPo1A", "review_count": 155, "categories": [{"alias": "italian", "title": "Italian"}], "rating": 3.5, "coordinates": {"latitude": 40.5971633871614, "longitude": -74.0842944930438}, "transactions": ["delivery", "pickup"], "price": "$$$", "location": {"address1": "1250 Hylan Blvd", "address2": "", "address3": "", "city": "Staten Island", "zip_code": "10305", "country": "US", "state": "NY", "display_address": ["1250 Hylan Blvd", "Staten Island, NY 10305"]}, "phone": "+17184206150", "display_phone": "(718) 420-6150", "distance": 14234.424658089227}, {"id": "nVIVqx1qXm_cXtLwcJ5JJQ", "alias": "bar-veloce-east-village-new-york", "name": "Bar Veloce - East Village", "image_url": "https://s3-media4.fl.yelpcdn.com/bphoto/E-Zg4CL2lCZwKUjIznK4hg/o.jpg", "is_closed": false, "url": "https://www.yelp.com/biz/bar-veloce-east-village-new-york?adjust_creative=WAxio19XFGhmTEs-1xPo1A&utm_campaign=yelp_api_v3&utm_medium=api_v3_business_search&utm_source=WAxio19XFGhmTEs-1xPo1A", "review_count": 211, "categories": [{"alias": "wine_bars", "title": "Wine Bars"}, {"alias": "cocktailbars", "title": "Cocktail Bars"}, {"alias": "sandwiches", "title": "Sandwiches"}], "rating": 3.5, "coordinates": {"latitude": 40.73067, "longitude": -73.98643}, "transactions": [], "price": "$$", "location": {"address1": "175 2nd Ave", "address2": null, "address3": "", "city": "New York", "zip_code": "10003", "country": "US", "state": "NY", "display_address": ["175 2nd Ave", "New York, NY 10003"]}, "phone": "+12122603200", "display_phone": "(212) 260-3200", "distance": 2883.4273826378217}, {"id": "PntYFpmgQjAuccjszMFbBw", "alias": "bettola-new-york-2", "name": "Bettola", "image_url": "https://s3-media1.fl.yelpcdn.com/bphoto/vIP-j-tUrwUt-6QnqtwCeA/o.jpg", "is_closed": false, "url": "https://www.yelp.com/biz/bettola-new-york-2?adjust_creative=WAxio19XFGhmTEs-1xPo1A&utm_campaign=yelp_api_v3&utm_medium=api_v3_business_search&utm_source=WAxio19XFGhmTEs-1xPo1A", "review_count": 201, "categories": [{"alias": "italian", "title": "Italian"}, {"alias": "pizza", "title": "Pizza"}, {"alias": "wine_bars", "title": "Wine Bars"}], "rating": 3.5, "coordinates": {"latitude": 40.78367, "longitude": -73.97816}, "transactions": ["delivery", "pickup"], "price": "$$", "location": {"address1": "412 Amsterdam Ave", "address2": null, "address3": "", "city": "New York", "zip_code": "10024", "country": "US", "state": "NY", "display_address": ["412 Amsterdam Ave", "New York, NY 10024"]}, "phone": "+12127871660", "display_phone": "(212) 787-1660", "distance": 8808.644050003579}, {"id": "ovN5UGDSl-9zD2lZ2-lntQ", "alias": "trattoria-vivolo-harrison", "name": "Trattoria Vivolo", "image_url": "https://s3-media1.fl.yelpcdn.com/bphoto/B17zrojdIjWg2RIMvKQb0A/o.jpg", "is_closed": false, "url": "https://www.yelp.com/biz/trattoria-vivolo-harrison?adjust_creative=WAxio19XFGhmTEs-1xPo1A&utm_campaign=yelp_api_v3&utm_medium=api_v3_business_search&utm_source=WAxio19XFGhmTEs-1xPo1A", "review_count": 125, "categories": [{"alias": "italian", "title": "Italian"}], "rating": 4.5, "coordinates": {"latitude": 40.96891, "longitude": -73.71137}, "transactions": ["delivery"], "price": "$$", "location": {"address1": "301 Halstead Ave", "address2": "", "address3": "", "city": "Harrison", "zip_code": "10528", "country": "US", "state": "NY", "display_address": ["301 Halstead Ave", "Harrison, NY 10528"]}, "phone": "+19148356199", "display_phone": "(914) 835-6199", "distance": 37749.26576088885}, {"id": "v2w_gKvV5kCk8a-nGDPrEQ", "alias": "numero-28-pizzeria-forest-hills-2", "name": "Numero 28 Pizzeria", "image_url": "https://s3-media1.fl.yelpcdn.com/bphoto/y4Kpxj8NmSvQu2DfVhMghg/o.jpg", "is_closed": false, "url": "https://www.yelp.com/biz/numero-28-pizzeria-forest-hills-2?adjust_creative=WAxio19XFGhmTEs-1xPo1A&utm_campaign=yelp_api_v3&utm_medium=api_v3_business_search&utm_source=WAxio19XFGhmTEs-1xPo1A", "review_count": 189, "categories": [{"alias": "pizza", "title": "Pizza"}, {"alias": "italian", "title": "Italian"}], "rating": 4.0, "coordinates": {"latitude": 40.7208543, "longitude": -73.8454939}, "transactions": ["delivery", "pickup"], "price": "$$", "location": {"address1": "107-12 70th Rd", "address2": "", "address3": null, "city": "Forest Hills", "zip_code": "11375", "country": "US", "state": "NY", "display_address": ["107-12 70th Rd", "Forest Hills, NY 11375"]}, "phone": "+17185444600", "display_phone": "(718) 544-4600", "distance": 12657.900507240387}, {"id": "cRfAN-SRlFuaSd-mp-9iiQ", "alias": "restivo-ristorante-new-york", "name": "Restivo Ristorante", "image_url": "https://s3-media1.fl.yelpcdn.com/bphoto/6rhBfj3thMf5bDfnO8mZUA/o.jpg", "is_closed": false, "url": "https://www.yelp.com/biz/restivo-ristorante-new-york?adjust_creative=WAxio19XFGhmTEs-1xPo1A&utm_campaign=yelp_api_v3&utm_medium=api_v3_business_search&utm_source=WAxio19XFGhmTEs-1xPo1A", "review_count": 120, "categories": [{"alias": "italian", "title": "Italian"}], "rating": 3.5, "coordinates": {"latitude": 40.7434605855724, "longitude": -73.9959991865082}, "transactions": ["delivery", "pickup"], "price": "$$", "location": {"address1": "209 7th Ave", "address2": "", "address3": "", "city": "New York", "zip_code": "10011", "country": "US", "state": "NY", "display_address": ["209 7th Ave", "New York, NY 10011"]}, "phone": "+12123664133", "display_phone": "(212) 366-4133", "distance": 4229.594534884058}, {"id": "AYBRN8pKB8_ZfcCks17OmQ", "alias": "beebes-long-island-city", "name": "Beebe's", "image_url": "https://s3-media1.fl.yelpcdn.com/bphoto/iEToVluuxHpqfU-PXUN0UA/o.jpg", "is_closed": false, "url": "https://www.yelp.com/biz/beebes-long-island-city?adjust_creative=WAxio19XFGhmTEs-1xPo1A&utm_campaign=yelp_api_v3&utm_medium=api_v3_business_search&utm_source=WAxio19XFGhmTEs-1xPo1A", "review_count": 121, "categories": [{"alias": "pizza", "title": "Pizza"}, {"alias": "breakfast_brunch", "title": "Breakfast & Brunch"}, {"alias": "cocktailbars", "title": "Cocktail Bars"}], "rating": 4.0, "coordinates": {"latitude": 40.7547438, "longitude": -73.9358372}, "transactions": ["delivery", "pickup"], "price": "$$", "location": {"address1": "38-28 27th St", "address2": "", "address3": null, "city": "Long Island City", "zip_code": "11101", "country": "US", "state": "NY", "display_address": ["38-28 27th St", "Long Island City, NY 11101"]}, "phone": "+17182082895", "display_phone": "(718) 208-2895", "distance": 7374.530538532513}, {"id": "GI02HjwIOpKaDZeQkCxM0g", "alias": "mama-rosas-brick-oven-pizzaria-restaurant-jackson-heights", "name": "Mama Rosa's Brick Oven Pizzaria Restaurant", "image_url": "https://s3-media3.fl.yelpcdn.com/bphoto/499EYpfskuZpDsOenz8i5Q/o.jpg", "is_closed": false, "url": "https://www.yelp.com/biz/mama-rosas-brick-oven-pizzaria-restaurant-jackson-heights?adjust_creative=WAxio19XFGhmTEs-1xPo1A&utm_campaign=yelp_api_v3&utm_medium=api_v3_business_search&utm_source=WAxio19XFGhmTEs-1xPo1A", "review_count": 71, "categories": [{"alias": "pizza", "title": "Pizza"}], "rating": 4.0, "coordinates": {"latitude": 40.7495109, "longitude": -73.888552}, "transactions": ["delivery", "pickup"], "location": {"address1": "77-09 37th Ave", "address2": "", "address3": null, "city": "Jackson Heights", "zip_code": "11372", "country": "US", "state": "NY", "display_address": ["77-09 37th Ave", "Jackson Heights, NY 11372"]}, "phone": "+13476491862", "display_phone": "(347) 649-1862", "distance": 10168.766875487487}, {"id": "PGr_Fx5_HhwzAgBOJ2URUw", "alias": "la-rondine-pizza-and-restaurant-kew-gardens", "name": "La Rondine Pizza & Restaurant", "image_url": "https://s3-media4.fl.yelpcdn.com/bphoto/mK6py8IK6k2W9VS1L0HHCg/o.jpg", "is_closed": false, "url": "https://www.yelp.com/biz/la-rondine-pizza-and-restaurant-kew-gardens?adjust_creative=WAxio19XFGhmTEs-1xPo1A&utm_campaign=yelp_api_v3&utm_medium=api_v3_business_search&utm_source=WAxio19XFGhmTEs-1xPo1A", "review_count": 111, "categories": [{"alias": "pizza", "title": "Pizza"}, {"alias": "italian", "title": "Italian"}], "rating": 3.5, "coordinates": {"latitude": 40.713301531724, "longitude": -73.8291785744768}, "transactions": ["delivery", "pickup"], "price": "$", "location": {"address1": "12038 Queens Blvd", "address2": "", "address3": "", "city": "Kew Gardens", "zip_code": "11415", "country": "US", "state": "NY", "display_address": ["12038 Queens Blvd", "Kew Gardens, NY 11415"]}, "phone": "+17187932556", "display_phone": "(718) 793-2556", "distance": 13944.694555094327}, {"id": "xlnND-F94Z5OlXlq-bqrhg", "alias": "benateris-italian-gourmet-deli-college-point-3", "name": "Benateri's Italian Gourmet Deli", "image_url": "https://s3-media2.fl.yelpcdn.com/bphoto/q4PvFMEsYJbccImJpEeFhQ/o.jpg", "is_closed": false, "url": "https://www.yelp.com/biz/benateris-italian-gourmet-deli-college-point-3?adjust_creative=WAxio19XFGhmTEs-1xPo1A&utm_campaign=yelp_api_v3&utm_medium=api_v3_business_search&utm_source=WAxio19XFGhmTEs-1xPo1A", "review_count": 139, "categories": [{"alias": "delis", "title": "Delis"}, {"alias": "sandwiches", "title": "Sandwiches"}, {"alias": "italian", "title": "Italian"}], "rating": 4.5, "coordinates": {"latitude": 40.7859427, "longitude": -73.8385427}, "transactions": ["delivery", "pickup"], "price": "$$", "location": {"address1": "129-21 14th Ave", "address2": "", "address3": "", "city": "College Point", "zip_code": "11356", "country": "US", "state": "NY", "display_address": ["129-21 14th Ave", "College Point, NY 11356"]}, "phone": "+17184459240", "display_phone": "(718) 445-9240", "distance": 15887.669846645285}, {"id": "dbCTJp9ENDVIquxBWONzWQ", "alias": "pomodoro-new-york-2", "name": "Pomodoro", "image_url": "https://s3-media1.fl.yelpcdn.com/bphoto/lkQTD4ZL1aEFZMeGSh64wA/o.jpg", "is_closed": false, "url": "https://www.yelp.com/biz/pomodoro-new-york-2?adjust_creative=WAxio19XFGhmTEs-1xPo1A&utm_campaign=yelp_api_v3&utm_medium=api_v3_business_search&utm_source=WAxio19XFGhmTEs-1xPo1A", "review_count": 120, "categories": [{"alias": "italian", "title": "Italian"}, {"alias": "sandwiches", "title": "Sandwiches"}], "rating": 4.0, "coordinates": {"latitude": 40.75624, "longitude": -73.9939}, "transactions": ["delivery", "pickup"], "price": "$$", "location": {"address1": "518 9th Ave", "address2": "", "address3": "", "city": "New York", "zip_code": "10018", "country": "US", "state": "NY", "display_address": ["518 9th Ave", "New York, NY 10018"]}, "phone": "+12122397019", "display_phone": "(212) 239-7019", "distance": 5649.745129315644}, {"id": "-7PnG_cD9VY-IfHGWzynmQ", "alias": "ainslie-brooklyn-2", "name": "Ainslie", "image_url": "https://s3-media4.fl.yelpcdn.com/bphoto/VKS7h3TUyl5zwwaz_kD_Ew/o.jpg", "is_closed": false, "url": "https://www.yelp.com/biz/ainslie-brooklyn-2?adjust_creative=WAxio19XFGhmTEs-1xPo1A&utm_campaign=yelp_api_v3&utm_medium=api_v3_business_search&utm_source=WAxio19XFGhmTEs-1xPo1A", "review_count": 171, "categories": [{"alias": "beergardens", "title": "Beer Gardens"}, {"alias": "venues", "title": "Venues & Event Spaces"}, {"alias": "wine_bars", "title": "Wine Bars"}], "rating": 4.0, "coordinates": {"latitude": 40.712343, "longitude": -73.952121}, "transactions": [], "price": "$$", "location": {"address1": "76 Ainslie St", "address2": "", "address3": null, "city": "Brooklyn", "zip_code": "11211", "country": "US", "state": "NY", "display_address": ["76 Ainslie St", "Brooklyn, NY 11211"]}, "phone": "+13477253400", "display_phone": "(347) 725-3400", "distance": 3636.4832270704437}, {"id": "6Nmo6ZNNyAft93k7eSTkTA", "alias": "italian-village-pizzeria-new-york", "name": "Italian Village Pizzeria", "image_url": "https://s3-media3.fl.yelpcdn.com/bphoto/EQOtzs804Dmk6W69erUa3w/o.jpg", "is_closed": false, "url": "https://www.yelp.com/biz/italian-village-pizzeria-new-york?adjust_creative=WAxio19XFGhmTEs-1xPo1A&utm_campaign=yelp_api_v3&utm_medium=api_v3_business_search&utm_source=WAxio19XFGhmTEs-1xPo1A", "review_count": 222, "categories": [{"alias": "italian", "title": "Italian"}, {"alias": "pizza", "title": "Pizza"}], "rating": 3.5, "coordinates": {"latitude": 40.771447, "longitude": -73.952994}, "transactions": ["delivery", "pickup"], "price": "$", "location": {"address1": "1494 1st Ave", "address2": null, "address3": "", "city": "New York", "zip_code": "10075", "country": "US", "state": "NY", "display_address": ["1494 1st Ave", "New York, NY 10075"]}, "phone": "+12125355950", "display_phone": "(212) 535-5950", "distance": 8122.160375423722}, {"id": "wq43ljNSuSMG81qKHE7YpQ", "alias": "sant-ambroeus-west-village-new-york", "name": "Sant Ambroeus West Village", "image_url": "https://s3-media1.fl.yelpcdn.com/bphoto/FuXz9nH5jF-4igMXe4viwQ/o.jpg", "is_closed": false, "url": "https://www.yelp.com/biz/sant-ambroeus-west-village-new-york?adjust_creative=WAxio19XFGhmTEs-1xPo1A&utm_campaign=yelp_api_v3&utm_medium=api_v3_business_search&utm_source=WAxio19XFGhmTEs-1xPo1A", "review_count": 244, "categories": [{"alias": "italian", "title": "Italian"}, {"alias": "coffee", "title": "Coffee & Tea"}], "rating": 3.5, "coordinates": {"latitude": 40.735428, "longitude": -74.003142}, "transactions": ["delivery", "pickup"], "price": "$$$", "location": {"address1": "259 West 4th St", "address2": null, "address3": "", "city": "New York", "zip_code": "10014", "country": "US", "state": "NY", "display_address": ["259 West 4th St", "New York, NY 10014"]}, "phone": "+12126049254", "display_phone": "(212) 604-9254", "distance": 3416.3518963596466}, {"id": "0wbKQ4HoA1_JybcB9ayOKA", "alias": "gnoccheria-wall-street-new-york", "name": "Gnoccheria Wall Street", "image_url": "https://s3-media4.fl.yelpcdn.com/bphoto/cQ-mXHrDFNk3QtsbV9GPEg/o.jpg", "is_closed": false, "url": "https://www.yelp.com/biz/gnoccheria-wall-street-new-york?adjust_creative=WAxio19XFGhmTEs-1xPo1A&utm_campaign=yelp_api_v3&utm_medium=api_v3_business_search&utm_source=WAxio19XFGhmTEs-1xPo1A", "review_count": 35, "categories": [{"alias": "italian", "title": "Italian"}], "rating": 4.0, "coordinates": {"latitude": 40.70345, "longitude": -74.01213}, "transactions": ["delivery", "pickup"], "location": {"address1": "100 Broad St", "address2": "2nd Floor", "address3": "Entrance On Bridge Street", "city": "New York", "zip_code": "10004", "country": "US", "state": "NY", "display_address": ["100 Broad St", "2nd Floor", "Entrance On Bridge Street", "New York, NY 10004"]}, "phone": "+12124224102", "display_phone": "(212) 422-4102", "distance": 1516.8443768505897}, {"id": "WNOUPEZ6J8SZVSaK6Q3e-A", "alias": "porto-by-antonio-wood-burning-pizza-and-pasta-north-bergen", "name": "Porto By Antonio - Wood Burning Pizza & Pasta", "image_url": "https://s3-media4.fl.yelpcdn.com/bphoto/1oRUn2uMP_SpxLhpMaN42w/o.jpg", "is_closed": false, "url": "https://www.yelp.com/biz/porto-by-antonio-wood-burning-pizza-and-pasta-north-bergen?adjust_creative=WAxio19XFGhmTEs-1xPo1A&utm_campaign=yelp_api_v3&utm_medium=api_v3_business_search&utm_source=WAxio19XFGhmTEs-1xPo1A", "review_count": 726, "categories": [{"alias": "italian", "title": "Italian"}, {"alias": "pizza", "title": "Pizza"}], "rating": 4.5, "coordinates": {"latitude": 40.8048834508642, "longitude": -73.9934416639218}, "transactions": ["delivery", "pickup"], "price": "$$", "location": {"address1": "8921 Old River Rd", "address2": null, "address3": "", "city": "North Bergen", "zip_code": "07047", "country": "US", "state": "NJ", "display_address": ["8921 Old River Rd", "North Bergen, NJ 07047"]}, "phone": "+12019417107", "display_phone": "(201) 941-7107", "distance": 11057.286699973189}, {"id": "vzDb6_Zkm4m8O7tNidojjA", "alias": "pier-76-staten-island-2", "name": "Pier 76", "image_url": "https://s3-media4.fl.yelpcdn.com/bphoto/3t7KXZQJt-UjcstyWuobXQ/o.jpg", "is_closed": false, "url": "https://www.yelp.com/biz/pier-76-staten-island-2?adjust_creative=WAxio19XFGhmTEs-1xPo1A&utm_campaign=yelp_api_v3&utm_medium=api_v3_business_search&utm_source=WAxio19XFGhmTEs-1xPo1A", "review_count": 205, "categories": [{"alias": "italian", "title": "Italian"}, {"alias": "pizza", "title": "Pizza"}], "rating": 4.0, "coordinates": {"latitude": 40.640118, "longitude": -74.0759269}, "transactions": [], "price": "$$", "location": {"address1": "76 Bay St", "address2": "", "address3": "", "city": "Staten Island", "zip_code": "10301", "country": "US", "state": "NY", "display_address": ["76 Bay St", "Staten Island, NY 10301"]}, "phone": "+17184477437", "display_phone": "(718) 447-7437", "distance": 10008.158166392008}, {"id": "FR_E9_Z3WG5HjeIUyTKSWw", "alias": "antonios-kitchen-east-elmhurst", "name": "Antonio's Kitchen", "image_url": "https://s3-media2.fl.yelpcdn.com/bphoto/SFwFGHd5bNeMgt_toZnc3g/o.jpg", "is_closed": false, "url": "https://www.yelp.com/biz/antonios-kitchen-east-elmhurst?adjust_creative=WAxio19XFGhmTEs-1xPo1A&utm_campaign=yelp_api_v3&utm_medium=api_v3_business_search&utm_source=WAxio19XFGhmTEs-1xPo1A", "review_count": 136, "categories": [{"alias": "italian", "title": "Italian"}, {"alias": "wine_bars", "title": "Wine Bars"}, {"alias": "pizza", "title": "Pizza"}], "rating": 3.5, "coordinates": {"latitude": 40.7704153034747, "longitude": -73.8933003575181}, "transactions": ["delivery", "pickup"], "price": "$$", "location": {"address1": "76-08 21st Ave", "address2": "", "address3": "", "city": "East Elmhurst", "zip_code": "11370", "country": "US", "state": "NY", "display_address": ["76-08 21st Ave", "East Elmhurst, NY 11370"]}, "phone": "+17187289200", "display_phone": "(718) 728-9200", "distance": 11149.228969538364}, {"id": "dWc0ijADaD6ZdclJ5LqQdg", "alias": "paolas-restaurant-new-york", "name": "Paola's Restaurant", "image_url": "https://s3-media1.fl.yelpcdn.com/bphoto/z9yEs5B_TjmjL2Z6RUOXww/o.jpg", "is_closed": false, "url": "https://www.yelp.com/biz/paolas-restaurant-new-york?adjust_creative=WAxio19XFGhmTEs-1xPo1A&utm_campaign=yelp_api_v3&utm_medium=api_v3_business_search&utm_source=WAxio19XFGhmTEs-1xPo1A", "review_count": 182, "categories": [{"alias": "italian", "title": "Italian"}], "rating": 3.5, "coordinates": {"latitude": 40.7846546580287, "longitude": -73.9558692276478}, "transactions": [], "price": "$$$", "location": {"address1": "1295 Madison Ave", "address2": "", "address3": "", "city": "New York", "zip_code": "10128", "country": "US", "state": "NY", "display_address": ["1295 Madison Ave", "New York, NY 10128"]}, "phone": "+12127941890", "display_phone": "(212) 794-1890", "distance": 9383.702723413677}, {"id": "cwr8Mq0C2Pt0qUMj5CT8zg", "alias": "valbella-midtown-manhattan", "name": "Valbella Midtown", "image_url": "https://s3-media4.fl.yelpcdn.com/bphoto/OKpEwC5Oo2ZjMaqZVTsm7A/o.jpg", "is_closed": false, "url": "https://www.yelp.com/biz/valbella-midtown-manhattan?adjust_creative=WAxio19XFGhmTEs-1xPo1A&utm_campaign=yelp_api_v3&utm_medium=api_v3_business_search&utm_source=WAxio19XFGhmTEs-1xPo1A", "review_count": 67, "categories": [{"alias": "italian", "title": "Italian"}, {"alias": "venues", "title": "Venues & Event Spaces"}], "rating": 3.5, "coordinates": {"latitude": 40.7602446, "longitude": -73.9748551}, "transactions": [], "price": "$$$", "location": {"address1": "11 E 53rd St", "address2": "", "address3": "", "city": "Manhattan", "zip_code": "10022", "country": "US", "state": "NY", "display_address": ["11 E 53rd St", "Manhattan, NY 10022"]}, "phone": "+12128888955", "display_phone": "(212) 888-8955", "distance": 6309.721787091144}, {"id": "s9yeu2AneMTK4zRI96RzlQ", "alias": "margheritas-hoboken", "name": "Margherita's", "image_url": "https://s3-media4.fl.yelpcdn.com/bphoto/UzjNvH0qPgthXjGMzDGl6A/o.jpg", "is_closed": false, "url": "https://www.yelp.com/biz/margheritas-hoboken?adjust_creative=WAxio19XFGhmTEs-1xPo1A&utm_campaign=yelp_api_v3&utm_medium=api_v3_business_search&utm_source=WAxio19XFGhmTEs-1xPo1A", "review_count": 343, "categories": [{"alias": "pizza", "title": "Pizza"}, {"alias": "italian", "title": "Italian"}, {"alias": "seafood", "title": "Seafood"}], "rating": 4.0, "coordinates": {"latitude": 40.74594, "longitude": -74.02855}, "transactions": ["delivery", "pickup"], "price": "$$", "location": {"address1": "740 Washington St", "address2": "Ste 1", "address3": "", "city": "Hoboken", "zip_code": "07030", "country": "US", "state": "NJ", "display_address": ["740 Washington St", "Ste 1", "Hoboken, NJ 07030"]}, "phone": "+12012222400", "display_phone": "(201) 222-2400", "distance": 5353.099712304658}, {"id": "oOr6Ta5gZyDl6PyZ1cq7pg", "alias": "east-village-pizza-new-york", "name": "East Village Pizza", "image_url": "https://s3-media2.fl.yelpcdn.com/bphoto/JovsXYGUD7K98X-dWrPzYw/o.jpg", "is_closed": false, "url": "https://www.yelp.com/biz/east-village-pizza-new-york?adjust_creative=WAxio19XFGhmTEs-1xPo1A&utm_campaign=yelp_api_v3&utm_medium=api_v3_business_search&utm_source=WAxio19XFGhmTEs-1xPo1A", "review_count": 289, "categories": [{"alias": "pizza", "title": "Pizza"}, {"alias": "italian", "title": "Italian"}], "rating": 4.0, "coordinates": {"latitude": 40.728199, "longitude": -73.985182}, "transactions": ["delivery", "pickup"], "price": "$", "location": {"address1": "145 1st Ave", "address2": "", "address3": "", "city": "New York", "zip_code": "10003", "country": "US", "state": "NY", "display_address": ["145 1st Ave", "New York, NY 10003"]}, "phone": "+12125294545", "display_phone": "(212) 529-4545", "distance": 2643.8575043591286}, {"id": "unjqnjSjpdGyP2Gqg0qJVA", "alias": "marcellino-tratoria-and-pizzeria-new-york-2", "name": "marcellino tratoria & pizzeria", "image_url": "https://s3-media4.fl.yelpcdn.com/bphoto/yMdlrz8XgfX_pj4UNdRk8Q/o.jpg", "is_closed": false, "url": "https://www.yelp.com/biz/marcellino-tratoria-and-pizzeria-new-york-2?adjust_creative=WAxio19XFGhmTEs-1xPo1A&utm_campaign=yelp_api_v3&utm_medium=api_v3_business_search&utm_source=WAxio19XFGhmTEs-1xPo1A", "review_count": 54, "categories": [{"alias": "pizza", "title": "Pizza"}, {"alias": "italian", "title": "Italian"}, {"alias": "cocktailbars", "title": "Cocktail Bars"}], "rating": 4.0, "coordinates": {"latitude": 40.72066, "longitude": -73.99666}, "transactions": ["delivery", "pickup"], "price": "$$", "location": {"address1": "178 Mulberry St", "address2": null, "address3": "", "city": "New York", "zip_code": "10012", "country": "US", "state": "NY", "display_address": ["178 Mulberry St", "New York, NY 10012"]}, "phone": "+16469984576", "display_phone": "(646) 998-4576", "distance": 1702.9244297872103}, {"id": "2MuvmwOuwvGOWkBimhniLA", "alias": "la-bellezza-new-york", "name": "La Bellezza", "image_url": "https://s3-media3.fl.yelpcdn.com/bphoto/QCMRySXEIqJv_B6LJ55muA/o.jpg", "is_closed": false, "url": "https://www.yelp.com/biz/la-bellezza-new-york?adjust_creative=WAxio19XFGhmTEs-1xPo1A&utm_campaign=yelp_api_v3&utm_medium=api_v3_business_search&utm_source=WAxio19XFGhmTEs-1xPo1A", "review_count": 270, "categories": [{"alias": "pizza", "title": "Pizza"}], "rating": 4.0, "coordinates": {"latitude": 40.7557792663574, "longitude": -73.9720153808594}, "transactions": ["delivery", "pickup"], "price": "$", "location": {"address1": "145 E 49th St", "address2": "", "address3": "", "city": "New York", "zip_code": "10017", "country": "US", "state": "NY", "display_address": ["145 E 49th St", "New York, NY 10017"]}, "phone": "+12128713223", "display_phone": "(212) 871-3223", "distance": 5906.839810931162}, {"id": "kR_YpqhY8OxWhM_Ile1QZw", "alias": "san-remo-pizzeria-and-restaurant-brooklyn", "name": "San Remo Pizzeria & Restaurant", "image_url": "https://s3-media2.fl.yelpcdn.com/bphoto/FUrXrKpmBub7KDwKcecspw/o.jpg", "is_closed": false, "url": "https://www.yelp.com/biz/san-remo-pizzeria-and-restaurant-brooklyn?adjust_creative=WAxio19XFGhmTEs-1xPo1A&utm_campaign=yelp_api_v3&utm_medium=api_v3_business_search&utm_source=WAxio19XFGhmTEs-1xPo1A", "review_count": 192, "categories": [{"alias": "pizza", "title": "Pizza"}, {"alias": "italian", "title": "Italian"}], "rating": 3.5, "coordinates": {"latitude": 40.64081, "longitude": -73.96493}, "transactions": ["delivery", "pickup"], "price": "$", "location": {"address1": "1408 Cortelyou Rd", "address2": "", "address3": "", "city": "Brooklyn", "zip_code": "11226", "country": "US", "state": "NY", "display_address": ["1408 Cortelyou Rd", "Brooklyn, NY 11226"]}, "phone": "+17182824915", "display_phone": "(718) 282-4915", "distance": 7606.5912505575}, {"id": "0UIUQWmwf_yxyygLXPQ0Hw", "alias": "mimmo-cucina-italiana-new-york", "name": "Mimmo Cucina Italiana", "image_url": "https://s3-media2.fl.yelpcdn.com/bphoto/ZOjz2WckJl6fIr2HMB2new/o.jpg", "is_closed": false, "url": "https://www.yelp.com/biz/mimmo-cucina-italiana-new-york?adjust_creative=WAxio19XFGhmTEs-1xPo1A&utm_campaign=yelp_api_v3&utm_medium=api_v3_business_search&utm_source=WAxio19XFGhmTEs-1xPo1A", "review_count": 97, "categories": [{"alias": "pizza", "title": "Pizza"}, {"alias": "italian", "title": "Italian"}, {"alias": "wine_bars", "title": "Wine Bars"}], "rating": 4.0, "coordinates": {"latitude": 40.77764, "longitude": -73.94565}, "transactions": ["delivery", "pickup"], "price": "$$", "location": {"address1": "1690 York Ave", "address2": "", "address3": null, "city": "New York", "zip_code": "10128", "country": "US", "state": "NY", "display_address": ["1690 York Ave", "New York, NY 10128"]}, "phone": "+19174095820", "display_phone": "(917) 409-5820", "distance": 9011.674765968395}, {"id": "V89tx7_QRzSq0GCvhdOCQA", "alias": "rustico-cooking-new-york", "name": "Rustico Cooking", "image_url": "https://s3-media1.fl.yelpcdn.com/bphoto/JFQ168sT9TQ0ZmhdKWY6vA/o.jpg", "is_closed": false, "url": "https://www.yelp.com/biz/rustico-cooking-new-york?adjust_creative=WAxio19XFGhmTEs-1xPo1A&utm_campaign=yelp_api_v3&utm_medium=api_v3_business_search&utm_source=WAxio19XFGhmTEs-1xPo1A", "review_count": 57, "categories": [{"alias": "italian", "title": "Italian"}, {"alias": "cookingschools", "title": "Cooking Schools"}], "rating": 3.5, "coordinates": {"latitude": 40.7522224397433, "longitude": -73.9842870476505}, "transactions": [], "price": "$$$$", "location": {"address1": "40 W 39th St", "address2": "", "address3": "3d Fl", "city": "New York", "zip_code": "10018", "country": "US", "state": "NY", "display_address": ["40 W 39th St", "3d Fl", "New York, NY 10018"]}, "phone": "+19176021519", "display_phone": "(917) 602-1519", "distance": 5269.319089200648}, {"id": "LbgBFEdSkWyQ06rGN1t4uQ", "alias": "gelateria-gentile-williamsburg", "name": "Gelateria Gentile", "image_url": "https://s3-media4.fl.yelpcdn.com/bphoto/UUQcCNhjnvWlFi2JhvJmIg/o.jpg", "is_closed": false, "url": "https://www.yelp.com/biz/gelateria-gentile-williamsburg?adjust_creative=WAxio19XFGhmTEs-1xPo1A&utm_campaign=yelp_api_v3&utm_medium=api_v3_business_search&utm_source=WAxio19XFGhmTEs-1xPo1A", "review_count": 165, "categories": [{"alias": "coffee", "title": "Coffee & Tea"}, {"alias": "gelato", "title": "Gelato"}, {"alias": "creperies", "title": "Creperies"}], "rating": 4.5, "coordinates": {"latitude": 40.7161757, "longitude": -73.9637628}, "transactions": ["delivery", "pickup"], "price": "$", "location": {"address1": "253 Wythe Ave", "address2": "", "address3": "", "city": "Williamsburg", "zip_code": "11249", "country": "US", "state": "NY", "display_address": ["253 Wythe Ave", "Williamsburg, NY 11249"]}, "phone": "+13475990646", "display_phone": "(347) 599-0646", "distance": 2836.4950608410113}, {"id": "2F0onUXsdSunj3FN7YsxBw", "alias": "arthur-avenue-new-york", "name": "Arthur Avenue", "image_url": "https://s3-media2.fl.yelpcdn.com/bphoto/EmoSYKPPd3gY9lKezd2aeQ/o.jpg", "is_closed": false, "url": "https://www.yelp.com/biz/arthur-avenue-new-york?adjust_creative=WAxio19XFGhmTEs-1xPo1A&utm_campaign=yelp_api_v3&utm_medium=api_v3_business_search&utm_source=WAxio19XFGhmTEs-1xPo1A", "review_count": 8, "categories": [{"alias": "italian", "title": "Italian"}], "rating": 4.5, "coordinates": {"latitude": 40.8558807373047, "longitude": -73.8874588012695}, "transactions": [], "location": {"address1": "", "address2": "", "address3": "", "city": "New York", "zip_code": "", "country": "US", "state": "NY", "display_address": ["New York, NY"]}, "phone": "", "display_phone": "", "distance": 18992.90934096827}, {"id": "Z6WOPnG83sgn65SmeyGqAw", "alias": "l-artista-italian-kitchen-and-bar-new-york", "name": "L'Artista Italian Kitchen & Bar", "image_url": "https://s3-media2.fl.yelpcdn.com/bphoto/ZVv62O2qvimKgV3qyXfhCw/o.jpg", "is_closed": false, "url": "https://www.yelp.com/biz/l-artista-italian-kitchen-and-bar-new-york?adjust_creative=WAxio19XFGhmTEs-1xPo1A&utm_campaign=yelp_api_v3&utm_medium=api_v3_business_search&utm_source=WAxio19XFGhmTEs-1xPo1A", "review_count": 13, "categories": [{"alias": "italian", "title": "Italian"}, {"alias": "wine_bars", "title": "Wine Bars"}, {"alias": "pizza", "title": "Pizza"}], "rating": 4.0, "coordinates": {"latitude": 40.824373, "longitude": -73.948669}, "transactions": ["delivery", "pickup"], "location": {"address1": "142 Hamilton Pl", "address2": null, "address3": "", "city": "New York", "zip_code": "10031", "country": "US", "state": "NY", "display_address": ["142 Hamilton Pl", "New York, NY 10031"]}, "phone": "+16468580312", "display_phone": "(646) 858-0312", "distance": 13771.101065854482}, {"id": "ZOfk6Ao0db5icjc0WEq7zg", "alias": "bacchus-bistro-and-wine-bar-brooklyn-2", "name": "Bacchus Bistro & Wine Bar", "image_url": "https://s3-media3.fl.yelpcdn.com/bphoto/8Wiromw_MWgSa_Fh0kB-PQ/o.jpg", "is_closed": false, "url": "https://www.yelp.com/biz/bacchus-bistro-and-wine-bar-brooklyn-2?adjust_creative=WAxio19XFGhmTEs-1xPo1A&utm_campaign=yelp_api_v3&utm_medium=api_v3_business_search&utm_source=WAxio19XFGhmTEs-1xPo1A", "review_count": 484, "categories": [{"alias": "french", "title": "French"}, {"alias": "wine_bars", "title": "Wine Bars"}], "rating": 4.0, "coordinates": {"latitude": 40.68692, "longitude": -73.98437}, "transactions": ["delivery", "pickup"], "price": "$$", "location": {"address1": "409-411 Atlantic Ave", "address2": "", "address3": "", "city": "Brooklyn", "zip_code": "11217", "country": "US", "state": "NY", "display_address": ["409-411 Atlantic Ave", "Brooklyn, NY 11217"]}, "phone": "+17188521572", "display_phone": "(718) 852-1572", "distance": 2219.7594386413657}, {"id": "kqauSzyRmynMhIbFDZ6X7A", "alias": "sergimmo-salumeria-whitestone", "name": "Sergimmo Salumeria", "image_url": "https://s3-media2.fl.yelpcdn.com/bphoto/QT7F8widJ1u64ThLAgY4jg/o.jpg", "is_closed": false, "url": "https://www.yelp.com/biz/sergimmo-salumeria-whitestone?adjust_creative=WAxio19XFGhmTEs-1xPo1A&utm_campaign=yelp_api_v3&utm_medium=api_v3_business_search&utm_source=WAxio19XFGhmTEs-1xPo1A", "review_count": 22, "categories": [{"alias": "italian", "title": "Italian"}, {"alias": "sandwiches", "title": "Sandwiches"}], "rating": 4.5, "coordinates": {"latitude": 40.789349240955, "longitude": -73.8123922222901}, "transactions": ["delivery", "pickup"], "location": {"address1": "150-39 14th Ave", "address2": "", "address3": null, "city": "Whitestone", "zip_code": "11357", "country": "US", "state": "NY", "display_address": ["150-39 14th Ave", "Whitestone, NY 11357"]}, "phone": "+17189394357", "display_phone": "(718) 939-4357", "distance": 17940.224570085953}, {"id": "aca-2JNOr0_65Idz4dnm1g", "alias": "roma-pizza-and-restaurant-brooklyn", "name": "Roma Pizza & Restaurant", "image_url": "https://s3-media1.fl.yelpcdn.com/bphoto/odMEFw8Ny5ShlcDpZ0fLLg/o.jpg", "is_closed": false, "url": "https://www.yelp.com/biz/roma-pizza-and-restaurant-brooklyn?adjust_creative=WAxio19XFGhmTEs-1xPo1A&utm_campaign=yelp_api_v3&utm_medium=api_v3_business_search&utm_source=WAxio19XFGhmTEs-1xPo1A", "review_count": 179, "categories": [{"alias": "pizza", "title": "Pizza"}, {"alias": "italian", "title": "Italian"}], "rating": 4.0, "coordinates": {"latitude": 40.674609, "longitude": -73.975037}, "transactions": ["delivery", "pickup"], "price": "$", "location": {"address1": "85 7th Ave", "address2": "", "address3": "", "city": "Brooklyn", "zip_code": "11217", "country": "US", "state": "NY", "display_address": ["85 7th Ave", "Brooklyn, NY 11217"]}, "phone": "+17187837334", "display_phone": "(718) 783-7334", "distance": 3793.746352859504}, {"id": "JnFV_qz7uWbLTY80K89J7Q", "alias": "emmetts-new-york-2", "name": "Emmett's", "image_url": "https://s3-media2.fl.yelpcdn.com/bphoto/HYRCZvifmipKhOh7_4-Pog/o.jpg", "is_closed": false, "url": "https://www.yelp.com/biz/emmetts-new-york-2?adjust_creative=WAxio19XFGhmTEs-1xPo1A&utm_campaign=yelp_api_v3&utm_medium=api_v3_business_search&utm_source=WAxio19XFGhmTEs-1xPo1A", "review_count": 504, "categories": [{"alias": "tradamerican", "title": "American (Traditional)"}, {"alias": "pizza", "title": "Pizza"}, {"alias": "sandwiches", "title": "Sandwiches"}], "rating": 4.0, "coordinates": {"latitude": 40.727303, "longitude": -74.00243}, "transactions": ["delivery", "pickup"], "price": "$$", "location": {"address1": "50 Macdougal St", "address2": "", "address3": "", "city": "New York", "zip_code": "10012", "country": "US", "state": "NY", "display_address": ["50 Macdougal St", "New York, NY 10012"]}, "phone": "+19176393571", "display_phone": "(917) 639-3571", "distance": 2525.403139418779}, {"id": "qx0CdTCbAM7Dzas1naOaeA", "alias": "d-coluccio-and-sons-brooklyn", "name": "D. Coluccio & Sons", "image_url": "https://s3-media1.fl.yelpcdn.com/bphoto/OJdo2nBR71TaO4zSjEtRhA/o.jpg", "is_closed": false, "url": "https://www.yelp.com/biz/d-coluccio-and-sons-brooklyn?adjust_creative=WAxio19XFGhmTEs-1xPo1A&utm_campaign=yelp_api_v3&utm_medium=api_v3_business_search&utm_source=WAxio19XFGhmTEs-1xPo1A", "review_count": 55, "categories": [{"alias": "grocery", "title": "Grocery"}, {"alias": "cheese", "title": "Cheese Shops"}, {"alias": "italian", "title": "Italian"}], "rating": 4.5, "coordinates": {"latitude": 40.62974, "longitude": -74.00029}, "transactions": [], "price": "$$", "location": {"address1": "1214-20 60th St", "address2": "", "address3": "", "city": "Brooklyn", "zip_code": "11219", "country": "US", "state": "NY", "display_address": ["1214-20 60th St", "Brooklyn, NY 11219"]}, "phone": "+17184366700", "display_phone": "(718) 436-6700", "distance": 8446.606643214049}], "total": 8200, "region": {"center": {"longitude": -73.99429321289062, "latitude": 40.70544486444615}}}