{"businesses": [{"id": "z5-TEI72RVwwtWG4CEggLw", "alias": "lunella-ristorante-italiano-new-york", "name": "Lunella Ristorante Italiano", "image_url": "https://s3-media3.fl.yelpcdn.com/bphoto/rEWPGvfFXCLStSJFlY4n6g/o.jpg", "is_closed": false, "url": "https://www.yelp.com/biz/lunella-ristorante-italiano-new-york?adjust_creative=WAxio19XFGhmTEs-1xPo1A&utm_campaign=yelp_api_v3&utm_medium=api_v3_business_search&utm_source=WAxio19XFGhmTEs-1xPo1A", "review_count": 237, "categories": [{"alias": "italian", "title": "Italian"}], "rating": 3.5, "coordinates": {"latitude": 40.720108, "longitude": -73.997215}, "transactions": ["delivery", "pickup"], "price": "$$", "location": {"address1": "173 Mulberry St", "address2": "", "address3": "", "city": "New York", "zip_code": "10013", "country": "US", "state": "NY", "display_address": ["173 Mulberry St", "New York, NY 10013"]}, "phone": "+12129666639", "display_phone": "(212) 966-6639", "distance": 1649.123383854811}, {"id": "uDJw4dQiySoNCBoUalW1Ww", "alias": "lincoln-ristorante-new-york", "name": "Lincoln Ristorante", "image_url": "https://s3-media1.fl.yelpcdn.com/bphoto/YQ27-FJryY1ot9iJ0IWDJA/o.jpg", "is_closed": false, "url": "https://www.yelp.com/biz/lincoln-ristorante-new-york?adjust_creative=WAxio19XFGhmTEs-1xPo1A&utm_campaign=yelp_api_v3&utm_medium=api_v3_business_search&utm_source=WAxio19XFGhmTEs-1xPo1A", "review_count": 568, "categories": [{"alias": "italian", "title": "Italian"}], "rating": 4.0, "coordinates": {"latitude": 40.773359006218, "longitude": -73.9835011005249}, "transactions": ["delivery", "pickup"], "price": "$$$", "location": {"address1": "142 W 65th St", "address2": "", "address3": "", "city": "New York", "zip_code": "10023", "country": "US", "state": "NY", "display_address": ["142 W 65th St", "New York, NY 10023"]}, "phone": "+12123596500", "display_phone": "(212) 359-6500", "distance": 7606.24021678437}, {"id": "GXq2Qsm--A7QQt9rTXldig", "alias": "deninos-pizzeria-and-tavern-staten-island-staten-island", "name": "Deninos Pizzeria & Tavern - Staten Island", "image_url": "https://s3-media1.fl.yelpcdn.com/bphoto/F62xvRp4vBIK8pzV3UhtTQ/o.jpg", "is_closed": false, "url": "https://www.yelp.com/biz/deninos-pizzeria-and-tavern-staten-island-staten-island?adjust_creative=WAxio19XFGhmTEs-1xPo1A&utm_campaign=yelp_api_v3&utm_medium=api_v3_business_search&utm_source=WAxio19XFGhmTEs-1xPo1A", "review_count": 733, "categories": [{"alias": "pizza", "title": "Pizza"}, {"alias": "italian", "title": "Italian"}, {"alias": "chicken_wings", "title": "Chicken Wings"}], "rating": 4.0, "coordinates": {"latitude": 40.6302266718896, "longitude": -74.1402754933448}, "transactions": ["delivery", "pickup"], "price": "$$", "location": {"address1": "524 Port Richmond Ave", "address2": "", "address3": "", "city": "Staten Island", "zip_code": "10302", "country": "US", "state": "NY", "display_address": ["524 Port Richmond Ave", "Staten Island, NY 10302"]}, "phone": "+17184429401", "display_phone": "(718) 442-9401", "distance": 14884.48244182446}, {"id": "0Gx08zPfwP8tI2Hg4r6AGg", "alias": "delucas-italian-restaurant-staten-island", "name": "Deluca's Italian Restaurant", "image_url": "https://s3-media2.fl.yelpcdn.com/bphoto/3pt07_t48k__Q0e5_iXoyQ/o.jpg", "is_closed": false, "url": "https://www.yelp.com/biz/delucas-italian-restaurant-staten-island?adjust_creative=WAxio19XFGhmTEs-1xPo1A&utm_campaign=yelp_api_v3&utm_medium=api_v3_business_search&utm_source=WAxio19XFGhmTEs-1xPo1A", "review_count": 166, "categories": [{"alias": "italian", "title": "Italian"}, {"alias": "seafood", "title": "Seafood"}, {"alias": "cocktailbars", "title": "Cocktail Bars"}], "rating": 4.5, "coordinates": {"latitude": 40.5111020473786, "longitude": -74.2413425571133}, "transactions": [], "price": "$$$", "location": {"address1": "7324 Amboy Rd", "address2": "", "address3": null, "city": "Staten Island", "zip_code": "10307", "country": "US", "state": "NY", "display_address": ["7324 Amboy Rd", "Staten Island, NY 10307"]}, "phone": "+17182277200", "display_phone": "(718) 227-7200", "distance": 30031.985255235224}, {"id": "YuzOnNDfRKixNJiaVy5Baw", "alias": "robertas-pizza-new-york-2", "name": "Roberta's Pizza", "image_url": "https://s3-media3.fl.yelpcdn.com/bphoto/DfRh3ueUr2FONIMGoitPMQ/o.jpg", "is_closed": false, "url": "https://www.yelp.com/biz/robertas-pizza-new-york-2?adjust_creative=WAxio19XFGhmTEs-1xPo1A&utm_campaign=yelp_api_v3&utm_medium=api_v3_business_search&utm_source=WAxio19XFGhmTEs-1xPo1A", "review_count": 215, "categories": [{"alias": "pizza", "title": "Pizza"}], "rating": 4.0, "coordinates": {"latitude": 40.7545170712701, "longitude": -73.9765970005763}, "transactions": ["pickup"], "price": "$$", "location": {"address1": "230 Park Ave", "address2": null, "address3": "", "city": "New York", "zip_code": "10169", "country": "US", "state": "NY", "display_address": ["230 Park Ave", "New York, NY 10169"]}, "phone": "+16467470820", "display_phone": "(646) 747-0820", "distance": 5656.648409458703}, {"id": "CGRjJJShtsx0XXcFrFY76A", "alias": "eat-italian-staten-island", "name": "Eat Italian", "image_url": "https://s3-media1.fl.yelpcdn.com/bphoto/2_j6Fvhb7CKhShWYcwEh7w/o.jpg", "is_closed": false, "url": "https://www.yelp.com/biz/eat-italian-staten-island?adjust_creative=WAxio19XFGhmTEs-1xPo1A&utm_campaign=yelp_api_v3&utm_medium=api_v3_business_search&utm_source=WAxio19XFGhmTEs-1xPo1A", "review_count": 94, "categories": [{"alias": "italian", "title": "Italian"}], "rating": 3.5, "coordinates": {"latitude": 40.5424993727034, "longitude": -74.2070855945349}, "transactions": [], "location": {"address1": "655 Rossville Ave", "address2": null, "address3": null, "city": "Staten Island", "zip_code": "10309", "country": "US", "state": "NY", "display_address": ["655 Rossville Ave", "Staten Island, NY 10309"]}, "phone": "+17189664186", "display_phone": "(718) 966-4186", "distance": 25511.00204988523}, {"id": "1ocm2YeYQJ3KveEBDcXAqg", "alias": "nonnas-pizza-new-york-6", "name": "Nonna's Pizza", "image_url": "https://s3-media2.fl.yelpcdn.com/bphoto/UBPZxiRFF3z_09f-39JQDw/o.jpg", "is_closed": false, "url": "https://www.yelp.com/biz/nonnas-pizza-new-york-6?adjust_creative=WAxio19XFGhmTEs-1xPo1A&utm_campaign=yelp_api_v3&utm_medium=api_v3_business_search&utm_source=WAxio19XFGhmTEs-1xPo1A", "review_count": 1, "categories": [{"alias": "pizza", "title": "Pizza"}], "rating": 5.0, "coordinates": {"latitude": 40.73891, "longitude": -73.99298}, "transactions": ["delivery", "pickup"], "location": {"address1": "12 W 18th St", "address2": "", "address3": null, "city": "New York", "zip_code": "10011", "country": "US", "state": "NY", "display_address": ["12 W 18th St", "New York, NY 10011"]}, "phone": "+12122060500", "display_phone": "(212) 206-0500", "distance": 3718.62334949911}, {"id": "j9uuXTmbt4JCphSVg5DpgQ", "alias": "cafe-rustico-ii-new-york", "name": "Cafe Rustico II", "image_url": "https://s3-media2.fl.yelpcdn.com/bphoto/S_eZOozzLlPguWB6efmXPQ/o.jpg", "is_closed": false, "url": "https://www.yelp.com/biz/cafe-rustico-ii-new-york?adjust_creative=WAxio19XFGhmTEs-1xPo1A&utm_campaign=yelp_api_v3&utm_medium=api_v3_business_search&utm_source=WAxio19XFGhmTEs-1xPo1A", "review_count": 132, "categories": [{"alias": "italian", "title": "Italian"}, {"alias": "pizza", "title": "Pizza"}], "rating": 4.0, "coordinates": {"latitude": 40.74719, "longitude": -73.98202}, "transactions": ["delivery", "pickup"], "price": "$", "location": {"address1": "62 E 34th St", "address2": "", "address3": "", "city": "New York", "zip_code": "10016", "country": "US", "state": "NY", "display_address": ["62 E 34th St", "New York, NY 10016"]}, "phone": "+12127361114", "display_phone": "(212) 736-1114", "distance": 4754.306537220634}, {"id": "i2qRs4quOMPunkh6B7DelQ", "alias": "il-toscano-ristorante-douglaston", "name": "IL Toscano Ristorante", "image_url": "https://s3-media3.fl.yelpcdn.com/bphoto/W-_JQZI9Umq_NM0Q4rN3sQ/o.jpg", "is_closed": false, "url": "https://www.yelp.com/biz/il-toscano-ristorante-douglaston?adjust_creative=WAxio19XFGhmTEs-1xPo1A&utm_campaign=yelp_api_v3&utm_medium=api_v3_business_search&utm_source=WAxio19XFGhmTEs-1xPo1A", "review_count": 200, "categories": [{"alias": "italian", "title": "Italian"}, {"alias": "seafood", "title": "Seafood"}], "rating": 4.0, "coordinates": {"latitude": 40.768352, "longitude": -73.748397}, "transactions": ["delivery", "pickup"], "price": "$$$", "location": {"address1": "4205 235th St", "address2": "", "address3": "", "city": "Douglaston", "zip_code": "11363", "country": "US", "state": "NY", "display_address": ["4205 235th St", "Douglaston, NY 11363"]}, "phone": "+17186310300", "display_phone": "(718) 631-0300", "distance": 21865.29729484564}, {"id": "-WEs8Trhq6nZPMyTzrAn9Q", "alias": "da-noi-downtown-staten-island-staten-island", "name": "Da Noi Downtown Staten Island", "image_url": "https://s3-media1.fl.yelpcdn.com/bphoto/oFHyTWDzWkFyl-ddlX82AQ/o.jpg", "is_closed": false, "url": "https://www.yelp.com/biz/da-noi-downtown-staten-island-staten-island?adjust_creative=WAxio19XFGhmTEs-1xPo1A&utm_campaign=yelp_api_v3&utm_medium=api_v3_business_search&utm_source=WAxio19XFGhmTEs-1xPo1A", "review_count": 87, "categories": [{"alias": "italian", "title": "Italian"}], "rating": 4.0, "coordinates": {"latitude": 40.6070167, "longitude": -74.0667212}, "transactions": ["delivery", "pickup"], "price": "$$$", "location": {"address1": "138 Fingerboard Rd", "address2": "", "address3": "", "city": "Staten Island", "zip_code": "10305", "country": "US", "state": "NY", "display_address": ["138 Fingerboard Rd", "Staten Island, NY 10305"]}, "phone": "+17187201650", "display_phone": "(718) 720-1650", "distance": 12544.250145276947}, {"id": "3G2iFvySFJLFpIs9g3o7vQ", "alias": "cascarinos-brick-oven-pizzeria-and-ristorante-whitestone", "name": "Cascarino's Brick Oven Pizzeria & Ristorante", "image_url": "https://s3-media2.fl.yelpcdn.com/bphoto/ieAQoF4dWw8bzSHVmC0UOw/o.jpg", "is_closed": false, "url": "https://www.yelp.com/biz/cascarinos-brick-oven-pizzeria-and-ristorante-whitestone?adjust_creative=WAxio19XFGhmTEs-1xPo1A&utm_campaign=yelp_api_v3&utm_medium=api_v3_business_search&utm_source=WAxio19XFGhmTEs-1xPo1A", "review_count": 139, "categories": [{"alias": "pizza", "title": "Pizza"}, {"alias": "italian", "title": "Italian"}, {"alias": "chicken_wings", "title": "Chicken Wings"}], "rating": 3.5, "coordinates": {"latitude": 40.793771, "longitude": -73.8078625482972}, "transactions": ["delivery", "pickup"], "price": "$$", "location": {"address1": "152-59 10th Ave", "address2": "", "address3": null, "city": "Whitestone", "zip_code": "11357", "country": "US", "state": "NY", "display_address": ["152-59 10th Ave", "Whitestone, NY 11357"]}, "phone": "+17187464370", "display_phone": "(718) 746-4370", "distance": 18522.724239705207}, {"id": "fxjygBjQqWSE71Ref2s0oA", "alias": "michaels-martinis-and-meatballs-staten-island", "name": "Michael's Martinis & Meatballs", "image_url": "https://s3-media4.fl.yelpcdn.com/bphoto/P2XU4XNzane6bgQrziljAg/o.jpg", "is_closed": false, "url": "https://www.yelp.com/biz/michaels-martinis-and-meatballs-staten-island?adjust_creative=WAxio19XFGhmTEs-1xPo1A&utm_campaign=yelp_api_v3&utm_medium=api_v3_business_search&utm_source=WAxio19XFGhmTEs-1xPo1A", "review_count": 230, "categories": [{"alias": "italian", "title": "Italian"}, {"alias": "breakfast_brunch", "title": "Breakfast & Brunch"}, {"alias": "cocktailbars", "title": "Cocktail Bars"}], "rating": 4.0, "coordinates": {"latitude": 40.584706, "longitude": -74.093654}, "transactions": ["delivery", "pickup"], "price": "$$", "location": {"address1": "1816 Hylan Blvd", "address2": "", "address3": "", "city": "Staten Island", "zip_code": "10305", "country": "US", "state": "NY", "display_address": ["1816 Hylan Blvd", "Staten Island, NY 10305"]}, "phone": "+13476958160", "display_phone": "(347) 695-8160", "distance": 15827.850468666022}, {"id": "uMO1DfoytP6Hw5bl_z7mDQ", "alias": "cafe-michelina-hoboken", "name": "Cafe Michelina", "image_url": "https://s3-media2.fl.yelpcdn.com/bphoto/vvqQ6d-qEzGfGkT_xNQ4Kw/o.jpg", "is_closed": false, "url": "https://www.yelp.com/biz/cafe-michelina-hoboken?adjust_creative=WAxio19XFGhmTEs-1xPo1A&utm_campaign=yelp_api_v3&utm_medium=api_v3_business_search&utm_source=WAxio19XFGhmTEs-1xPo1A", "review_count": 206, "categories": [{"alias": "italian", "title": "Italian"}], "rating": 3.5, "coordinates": {"latitude": 40.74222, "longitude": -74.03009}, "transactions": ["delivery"], "price": "$$", "location": {"address1": "423 Bloomfield St", "address2": "", "address3": "", "city": "Hoboken", "zip_code": "07030", "country": "US", "state": "NJ", "display_address": ["423 Bloomfield St", "Hoboken, NJ 07030"]}, "phone": "+12016593663", "display_phone": "(201) 659-3663", "distance": 5083.832255331668}, {"id": "mwDGX4OH3smoducpde2Elw", "alias": "quartino-bottega-organica-new-york", "name": "Quartino Bottega Organica", "image_url": "https://s3-media4.fl.yelpcdn.com/bphoto/9S8CJ3RTKaPGdmmzGKPwwQ/o.jpg", "is_closed": false, "url": "https://www.yelp.com/biz/quartino-bottega-organica-new-york?adjust_creative=WAxio19XFGhmTEs-1xPo1A&utm_campaign=yelp_api_v3&utm_medium=api_v3_business_search&utm_source=WAxio19XFGhmTEs-1xPo1A", "review_count": 201, "categories": [{"alias": "italian", "title": "Italian"}], "rating": 3.5, "coordinates": {"latitude": 40.7255491, "longitude": -73.9929031}, "transactions": ["delivery", "pickup"], "price": "$$", "location": {"address1": "11 Bleecker St", "address2": null, "address3": "", "city": "New York", "zip_code": "10012", "country": "US", "state": "NY", "display_address": ["11 Bleecker St", "New York, NY 10012"]}, "phone": "+12125295133", "display_phone": "(212) 529-5133", "distance": 2238.55454648491}, {"id": "OsA5iRphHwPlYNhdddvBng", "alias": "june-brooklyn-3", "name": "June", "image_url": "https://s3-media4.fl.yelpcdn.com/bphoto/1dZlWIzH26L-BAd0yF7tJw/o.jpg", "is_closed": false, "url": "https://www.yelp.com/biz/june-brooklyn-3?adjust_creative=WAxio19XFGhmTEs-1xPo1A&utm_campaign=yelp_api_v3&utm_medium=api_v3_business_search&utm_source=WAxio19XFGhmTEs-1xPo1A", "review_count": 182, "categories": [{"alias": "wine_bars", "title": "Wine Bars"}, {"alias": "tapasmallplates", "title": "Tapas/Small Plates"}, {"alias": "newamerican", "title": "American (New)"}], "rating": 4.0, "coordinates": {"latitude": 40.6861, "longitude": -73.99394}, "transactions": ["delivery", "pickup"], "price": "$$", "location": {"address1": "231 Court St", "address2": null, "address3": "", "city": "Brooklyn", "zip_code": "11201", "country": "US", "state": "NY", "display_address": ["231 Court St", "Brooklyn, NY 11201"]}, "phone": "+19179090434", "display_phone": "(917) 909-0434", "distance": 2153.3072067281314}, {"id": "H8qcX7MNNnC1bqE0LnIhKg", "alias": "sim\u00f2-pizza-new-york-4", "name": "SIM\u00d2 PIZZA", "image_url": "https://s3-media3.fl.yelpcdn.com/bphoto/qaSQsBdO9e1gz5OH9ROckw/o.jpg", "is_closed": false, "url": "https://www.yelp.com/biz/sim%C3%B2-pizza-new-york-4?adjust_creative=WAxio19XFGhmTEs-1xPo1A&utm_campaign=yelp_api_v3&utm_medium=api_v3_business_search&utm_source=WAxio19XFGhmTEs-1xPo1A", "review_count": 141, "categories": [{"alias": "pizza", "title": "Pizza"}], "rating": 4.5, "coordinates": {"latitude": 40.7392597584612, "longitude": -74.0088130692187}, "transactions": ["delivery", "pickup"], "price": "$", "location": {"address1": "90-92 Gansevoort St", "address2": "", "address3": null, "city": "New York", "zip_code": "10014", "country": "US", "state": "NY", "display_address": ["90-92 Gansevoort St", "New York, NY 10014"]}, "phone": "+12124622703", "display_phone": "(212) 462-2703", "distance": 3954.1313238707344}, {"id": "lA6IvTF7J8fNC5puhyS3PA", "alias": "bellini-italian-restaurant-new-york-2", "name": "Bellini Italian Restaurant", "image_url": "https://s3-media4.fl.yelpcdn.com/bphoto/L7w-m9VSjlqVEpLfBFz9PA/o.jpg", "is_closed": false, "url": "https://www.yelp.com/biz/bellini-italian-restaurant-new-york-2?adjust_creative=WAxio19XFGhmTEs-1xPo1A&utm_campaign=yelp_api_v3&utm_medium=api_v3_business_search&utm_source=WAxio19XFGhmTEs-1xPo1A", "review_count": 250, "categories": [{"alias": "italian", "title": "Italian"}, {"alias": "pizza", "title": "Pizza"}, {"alias": "wine_bars", "title": "Wine Bars"}], "rating": 3.5, "coordinates": {"latitude": 40.78457, "longitude": -73.97317}, "transactions": ["delivery", "pickup"], "price": "$$", "location": {"address1": "483 Columbus Ave", "address2": "", "address3": "", "city": "New York", "zip_code": "10024", "country": "US", "state": "NY", "display_address": ["483 Columbus Ave", "New York, NY 10024"]}, "phone": "+12127244615", "display_phone": "(212) 724-4615", "distance": 8978.251309361405}, {"id": "2F-7XCoPS1mbdy9ioqWuqw", "alias": "serafina-new-york-18", "name": "Serafina", "image_url": "https://s3-media2.fl.yelpcdn.com/bphoto/dLf7xCrI6Zzb-DOReTevEg/o.jpg", "is_closed": false, "url": "https://www.yelp.com/biz/serafina-new-york-18?adjust_creative=WAxio19XFGhmTEs-1xPo1A&utm_campaign=yelp_api_v3&utm_medium=api_v3_business_search&utm_source=WAxio19XFGhmTEs-1xPo1A", "review_count": 75, "categories": [{"alias": "italian", "title": "Italian"}, {"alias": "pizza", "title": "Pizza"}], "rating": 3.0, "coordinates": {"latitude": 40.80043, "longitude": -73.96828}, "transactions": ["delivery", "pickup"], "price": "$$", "location": {"address1": "2737 Broadway", "address2": null, "address3": "", "city": "New York", "zip_code": "10025", "country": "US", "state": "NY", "display_address": ["2737 Broadway", "New York, NY 10025"]}, "phone": "+12123010664", "display_phone": "(212) 301-0664", "distance": 10792.323288621526}, {"id": "ozk8FpXVEJ10PWoSy5HJ1w", "alias": "delmar-pizzeria-brooklyn", "name": "Delmar Pizzeria", "image_url": "https://s3-media2.fl.yelpcdn.com/bphoto/xgCZqqQYLZKEGAQybLd6GA/o.jpg", "is_closed": false, "url": "https://www.yelp.com/biz/delmar-pizzeria-brooklyn?adjust_creative=WAxio19XFGhmTEs-1xPo1A&utm_campaign=yelp_api_v3&utm_medium=api_v3_business_search&utm_source=WAxio19XFGhmTEs-1xPo1A", "review_count": 221, "categories": [{"alias": "pizza", "title": "Pizza"}, {"alias": "italian", "title": "Italian"}, {"alias": "sandwiches", "title": "Sandwiches"}], "rating": 4.0, "coordinates": {"latitude": 40.58615, "longitude": -73.95235}, "transactions": ["delivery", "pickup"], "price": "$", "location": {"address1": "1668 Sheepshead Bay Rd", "address2": "", "address3": "", "city": "Brooklyn", "zip_code": "11235", "country": "US", "state": "NY", "display_address": ["1668 Sheepshead Bay Rd", "Brooklyn, NY 11235"]}, "phone": "+17187697766", "display_phone": "(718) 769-7766", "distance": 13726.734177146054}, {"id": "ZamvzoxEKiJEboO0ZUdogw", "alias": "amici-ristorante-new-york-3", "name": "Amici Ristorante", "image_url": "https://s3-media4.fl.yelpcdn.com/bphoto/dR39Lx6HmiLNtYaAhzC85Q/o.jpg", "is_closed": false, "url": "https://www.yelp.com/biz/amici-ristorante-new-york-3?adjust_creative=WAxio19XFGhmTEs-1xPo1A&utm_campaign=yelp_api_v3&utm_medium=api_v3_business_search&utm_source=WAxio19XFGhmTEs-1xPo1A", "review_count": 7, "categories": [{"alias": "italian", "title": "Italian"}], "rating": 3.0, "coordinates": {"latitude": 40.71981, "longitude": -73.99722}, "transactions": ["delivery", "pickup"], "price": "$$", "location": {"address1": "165 Mulberry St", "address2": "", "address3": null, "city": "New York", "zip_code": "10013", "country": "US", "state": "NY", "display_address": ["165 Mulberry St", "New York, NY 10013"]}, "phone": "+12122032766", "display_phone": "(212) 203-2766", "distance": 1623.9902945862016}, {"id": "XVWogwA8XncHqRY4JVN9eQ", "alias": "tenth-street-pasta-and-pizza-hoboken", "name": "Tenth Street Pasta & Pizza", "image_url": "https://s3-media1.fl.yelpcdn.com/bphoto/c0x5RDesYjZfQ3v88lih-A/o.jpg", "is_closed": false, "url": "https://www.yelp.com/biz/tenth-street-pasta-and-pizza-hoboken?adjust_creative=WAxio19XFGhmTEs-1xPo1A&utm_campaign=yelp_api_v3&utm_medium=api_v3_business_search&utm_source=WAxio19XFGhmTEs-1xPo1A", "review_count": 175, "categories": [{"alias": "pizza", "title": "Pizza"}, {"alias": "italian", "title": "Italian"}], "rating": 3.5, "coordinates": {"latitude": 40.74934, "longitude": -74.03138}, "transactions": ["delivery", "pickup"], "price": "$", "location": {"address1": "1000 Willow Ave", "address2": "", "address3": null, "city": "Hoboken", "zip_code": "07030", "country": "US", "state": "NJ", "display_address": ["1000 Willow Ave", "Hoboken, NJ 07030"]}, "phone": "+12016838134", "display_phone": "(201) 683-8134", "distance": 5795.676600873836}, {"id": "sNu05k9J8ILFeBzLM7LCIQ", "alias": "patsys-pizzeria-bay-ridge-brooklyn", "name": "Patsy's Pizzeria - Bay Ridge", "image_url": "https://s3-media3.fl.yelpcdn.com/bphoto/qnhA7jezuhBj05SmlOhfeA/o.jpg", "is_closed": false, "url": "https://www.yelp.com/biz/patsys-pizzeria-bay-ridge-brooklyn?adjust_creative=WAxio19XFGhmTEs-1xPo1A&utm_campaign=yelp_api_v3&utm_medium=api_v3_business_search&utm_source=WAxio19XFGhmTEs-1xPo1A", "review_count": 108, "categories": [{"alias": "pizza", "title": "Pizza"}, {"alias": "italian", "title": "Italian"}], "rating": 3.5, "coordinates": {"latitude": 40.6217316, "longitude": -74.0319934}, "transactions": ["delivery", "pickup"], "price": "$$", "location": {"address1": "8814 3rd Ave", "address2": "", "address3": null, "city": "Brooklyn", "zip_code": "11209", "country": "US", "state": "NY", "display_address": ["8814 3rd Ave", "Brooklyn, NY 11209"]}, "phone": "+17187453003", "display_phone": "(718) 745-3003", "distance": 9836.638739974449}, {"id": "J6LTk4EZZ4HM7ASkZQztbQ", "alias": "francescos-brooklyn", "name": "Francesco's", "image_url": "https://s3-media3.fl.yelpcdn.com/bphoto/xUx0WrUjshZO_h5wwUiNmQ/o.jpg", "is_closed": false, "url": "https://www.yelp.com/biz/francescos-brooklyn?adjust_creative=WAxio19XFGhmTEs-1xPo1A&utm_campaign=yelp_api_v3&utm_medium=api_v3_business_search&utm_source=WAxio19XFGhmTEs-1xPo1A", "review_count": 81, "categories": [{"alias": "italian", "title": "Italian"}, {"alias": "pizza", "title": "Pizza"}], "rating": 3.5, "coordinates": {"latitude": 40.68357, "longitude": -73.99945}, "transactions": ["delivery", "pickup"], "price": "$", "location": {"address1": "529 Henry St", "address2": "", "address3": "", "city": "Brooklyn", "zip_code": "11231", "country": "US", "state": "NY", "display_address": ["529 Henry St", "Brooklyn, NY 11231"]}, "phone": "+17188340863", "display_phone": "(718) 834-0863", "distance": 2469.8670838183452}, {"id": "8wMJdpw2R_4VfS55itB_gQ", "alias": "sweetwater-restaurant-brooklyn-2", "name": "Sweetwater Restaurant", "image_url": "https://s3-media4.fl.yelpcdn.com/bphoto/kMmAhqVDm_aIs0ch-G2EIQ/o.jpg", "is_closed": false, "url": "https://www.yelp.com/biz/sweetwater-restaurant-brooklyn-2?adjust_creative=WAxio19XFGhmTEs-1xPo1A&utm_campaign=yelp_api_v3&utm_medium=api_v3_business_search&utm_source=WAxio19XFGhmTEs-1xPo1A", "review_count": 370, "categories": [{"alias": "newamerican", "title": "American (New)"}, {"alias": "bars", "title": "Bars"}], "rating": 4.0, "coordinates": {"latitude": 40.7184736, "longitude": -73.9600178}, "transactions": [], "price": "$$", "location": {"address1": "105 N 6th St", "address2": "", "address3": "", "city": "Brooklyn", "zip_code": "11249", "country": "US", "state": "NY", "display_address": ["105 N 6th St", "Brooklyn, NY 11249"]}, "phone": "+17189630608", "display_phone": "(718) 963-0608", "distance": 3231.820645331585}, {"id": "uQBlitra7XJTFJPXUGWBJw", "alias": "alphonsos-pizzeria-and-trattoria-new-york", "name": "Alphonso's Pizzeria & Trattoria", "image_url": "https://s3-media1.fl.yelpcdn.com/bphoto/vYeAclQZHFTa2YC47hsrdA/o.jpg", "is_closed": false, "url": "https://www.yelp.com/biz/alphonsos-pizzeria-and-trattoria-new-york?adjust_creative=WAxio19XFGhmTEs-1xPo1A&utm_campaign=yelp_api_v3&utm_medium=api_v3_business_search&utm_source=WAxio19XFGhmTEs-1xPo1A", "review_count": 129, "categories": [{"alias": "pizza", "title": "Pizza"}, {"alias": "italian", "title": "Italian"}], "rating": 4.0, "coordinates": {"latitude": 40.7143, "longitude": -73.98172}, "transactions": ["delivery", "pickup"], "price": "$", "location": {"address1": "525 Grand St", "address2": "", "address3": "", "city": "New York", "zip_code": "10002", "country": "US", "state": "NY", "display_address": ["525 Grand St", "New York, NY 10002"]}, "phone": "+12124773367", "display_phone": "(212) 477-3367", "distance": 1445.4936632430633}, {"id": "qZv3GwHh9VHhv9th-N7Wmg", "alias": "manganaros-hero-boy-new-york", "name": "Manganaro's Hero Boy", "image_url": "https://s3-media3.fl.yelpcdn.com/bphoto/lbiKNC2c1Aaj-3oyrX15ZQ/o.jpg", "is_closed": false, "url": "https://www.yelp.com/biz/manganaros-hero-boy-new-york?adjust_creative=WAxio19XFGhmTEs-1xPo1A&utm_campaign=yelp_api_v3&utm_medium=api_v3_business_search&utm_source=WAxio19XFGhmTEs-1xPo1A", "review_count": 198, "categories": [{"alias": "sandwiches", "title": "Sandwiches"}, {"alias": "italian", "title": "Italian"}, {"alias": "salad", "title": "Salad"}], "rating": 3.0, "coordinates": {"latitude": 40.7556311, "longitude": -73.9944614}, "transactions": ["delivery", "pickup"], "price": "$$", "location": {"address1": "494 9th Ave", "address2": "", "address3": "", "city": "New York", "zip_code": "10018", "country": "US", "state": "NY", "display_address": ["494 9th Ave", "New York, NY 10018"]}, "phone": "+12129477325", "display_phone": "(212) 947-7325", "distance": 5568.222897335344}, {"id": "eby9pE6FzmwjoYRVzDpzew", "alias": "sette-mezzo-new-york", "name": "Sette Mezzo", "image_url": "https://s3-media2.fl.yelpcdn.com/bphoto/2FzyJfh7vR-6Hq8LTbbVxA/o.jpg", "is_closed": false, "url": "https://www.yelp.com/biz/sette-mezzo-new-york?adjust_creative=WAxio19XFGhmTEs-1xPo1A&utm_campaign=yelp_api_v3&utm_medium=api_v3_business_search&utm_source=WAxio19XFGhmTEs-1xPo1A", "review_count": 64, "categories": [{"alias": "italian", "title": "Italian"}], "rating": 4.0, "coordinates": {"latitude": 40.7693455389848, "longitude": -73.9627933502197}, "transactions": [], "price": "$$$", "location": {"address1": "969 Lexington Ave", "address2": "", "address3": "", "city": "New York", "zip_code": "10021", "country": "US", "state": "NY", "display_address": ["969 Lexington Ave", "New York, NY 10021"]}, "phone": "+12124720400", "display_phone": "(212) 472-0400", "distance": 7584.890776082628}, {"id": "VBuF671en_sI7wV5aYkrpg", "alias": "enzos-pizza-ozone-park-2", "name": "Enzo's Pizza", "image_url": "https://s3-media1.fl.yelpcdn.com/bphoto/fQsOuvvOKofW2mQc3QWfTg/o.jpg", "is_closed": false, "url": "https://www.yelp.com/biz/enzos-pizza-ozone-park-2?adjust_creative=WAxio19XFGhmTEs-1xPo1A&utm_campaign=yelp_api_v3&utm_medium=api_v3_business_search&utm_source=WAxio19XFGhmTEs-1xPo1A", "review_count": 79, "categories": [{"alias": "italian", "title": "Italian"}, {"alias": "pastashops", "title": "Pasta Shops"}, {"alias": "pizza", "title": "Pizza"}], "rating": 3.5, "coordinates": {"latitude": 40.6842863, "longitude": -73.8594333}, "transactions": ["delivery", "pickup"], "price": "$$", "location": {"address1": "8102 Rockaway Blvd", "address2": "", "address3": "", "city": "Ozone Park", "zip_code": "11416", "country": "US", "state": "NY", "display_address": ["8102 Rockaway Blvd", "Ozone Park, NY 11416"]}, "phone": "+17182960880", "display_phone": "(718) 296-0880", "distance": 11619.704421961838}, {"id": "ngE6XKXWvDt-yVBET2BVtg", "alias": "emilios-of-morris-park-bronx", "name": "Emilio's of Morris Park", "image_url": "https://s3-media4.fl.yelpcdn.com/bphoto/kmYMpeQzadMSN5r1i6Se4g/o.jpg", "is_closed": false, "url": "https://www.yelp.com/biz/emilios-of-morris-park-bronx?adjust_creative=WAxio19XFGhmTEs-1xPo1A&utm_campaign=yelp_api_v3&utm_medium=api_v3_business_search&utm_source=WAxio19XFGhmTEs-1xPo1A", "review_count": 160, "categories": [{"alias": "pizza", "title": "Pizza"}, {"alias": "italian", "title": "Italian"}], "rating": 4.0, "coordinates": {"latitude": 40.849121, "longitude": -73.854675}, "transactions": ["delivery", "pickup"], "price": "$$", "location": {"address1": "1051 Morris Park Ave", "address2": "", "address3": "", "city": "Bronx", "zip_code": "10461", "country": "US", "state": "NY", "display_address": ["1051 Morris Park Ave", "Bronx, NY 10461"]}, "phone": "+17188226758", "display_phone": "(718) 822-6758", "distance": 19835.387352359015}, {"id": "lmuX1DybRvpt9LDMHUuKAA", "alias": "carrabbas-italian-grill-secaucus", "name": "Carrabba's Italian Grill", "image_url": "https://s3-media4.fl.yelpcdn.com/bphoto/GmxsuR2mSV-dXnrEX-ZIeA/o.jpg", "is_closed": false, "url": "https://www.yelp.com/biz/carrabbas-italian-grill-secaucus?adjust_creative=WAxio19XFGhmTEs-1xPo1A&utm_campaign=yelp_api_v3&utm_medium=api_v3_business_search&utm_source=WAxio19XFGhmTEs-1xPo1A", "review_count": 210, "categories": [{"alias": "italian", "title": "Italian"}, {"alias": "seafood", "title": "Seafood"}], "rating": 3.0, "coordinates": {"latitude": 40.789311, "longitude": -74.044031317791}, "transactions": [], "price": "$$", "location": {"address1": "485 Harmon Meadow Blvd", "address2": "", "address3": "", "city": "Secaucus", "zip_code": "07094", "country": "US", "state": "NJ", "display_address": ["485 Harmon Meadow Blvd", "Secaucus, NJ 07094"]}, "phone": "+12013308497", "display_phone": "(201) 330-8497", "distance": 10223.520551325568}, {"id": "Da9aNH6kW3fv4mTzqx3yPw", "alias": "caffe-palermo-new-york-2", "name": "Caffe Palermo", "image_url": "https://s3-media1.fl.yelpcdn.com/bphoto/64PxUZtpu2zMUPosXhhMEw/o.jpg", "is_closed": false, "url": "https://www.yelp.com/biz/caffe-palermo-new-york-2?adjust_creative=WAxio19XFGhmTEs-1xPo1A&utm_campaign=yelp_api_v3&utm_medium=api_v3_business_search&utm_source=WAxio19XFGhmTEs-1xPo1A", "review_count": 558, "categories": [{"alias": "bakeries", "title": "Bakeries"}, {"alias": "coffee", "title": "Coffee & Tea"}, {"alias": "italian", "title": "Italian"}], "rating": 3.5, "coordinates": {"latitude": 40.7189596, "longitude": -73.9972725}, "transactions": ["delivery", "pickup"], "price": "$$", "location": {"address1": "148 Mulberry St", "address2": "", "address3": "", "city": "New York", "zip_code": "10013", "country": "US", "state": "NY", "display_address": ["148 Mulberry St", "New York, NY 10013"]}, "phone": "+12124314205", "display_phone": "(212) 431-4205", "distance": 1527.347227012769}, {"id": "qoBcWhGwlcUsKIQ2nB22vA", "alias": "lombardos-of-bay-ridge-brooklyn-2", "name": "Lombardo's of Bay Ridge", "image_url": "https://s3-media2.fl.yelpcdn.com/bphoto/dApR-oBFGa2kQIpmEeasfA/o.jpg", "is_closed": false, "url": "https://www.yelp.com/biz/lombardos-of-bay-ridge-brooklyn-2?adjust_creative=WAxio19XFGhmTEs-1xPo1A&utm_campaign=yelp_api_v3&utm_medium=api_v3_business_search&utm_source=WAxio19XFGhmTEs-1xPo1A", "review_count": 134, "categories": [{"alias": "pizza", "title": "Pizza"}], "rating": 4.5, "coordinates": {"latitude": 40.634741, "longitude": -74.0284259}, "transactions": ["pickup"], "price": "$$", "location": {"address1": "279 71st St", "address2": null, "address3": "", "city": "Brooklyn", "zip_code": "11209", "country": "US", "state": "NY", "display_address": ["279 71st St", "Brooklyn, NY 11209"]}, "phone": "+17182387100", "display_phone": "(718) 238-7100", "distance": 8367.095256061873}, {"id": "Pb2HqSO0SP8HymbZM099hg", "alias": "tommaso-restaurant-brooklyn-2", "name": "Tommaso Restaurant", "image_url": "https://s3-media1.fl.yelpcdn.com/bphoto/GjgIG4FY99E5jIulWR4jGg/o.jpg", "is_closed": false, "url": "https://www.yelp.com/biz/tommaso-restaurant-brooklyn-2?adjust_creative=WAxio19XFGhmTEs-1xPo1A&utm_campaign=yelp_api_v3&utm_medium=api_v3_business_search&utm_source=WAxio19XFGhmTEs-1xPo1A", "review_count": 108, "categories": [{"alias": "italian", "title": "Italian"}], "rating": 3.5, "coordinates": {"latitude": 40.611598, "longitude": -74.010337}, "transactions": ["delivery", "pickup"], "price": "$$$", "location": {"address1": "1464 86th St", "address2": "", "address3": "", "city": "Brooklyn", "zip_code": "11228", "country": "US", "state": "NY", "display_address": ["1464 86th St", "Brooklyn, NY 11228"]}, "phone": "+17182369883", "display_phone": "(718) 236-9883", "distance": 10520.22174813807}, {"id": "GnaeBuilZb_fU01v3wNhZw", "alias": "grimaldis-hoboken", "name": "Grimaldi's", "image_url": "https://s3-media3.fl.yelpcdn.com/bphoto/N5G-KR0Q8BJcIK4FnaycQw/o.jpg", "is_closed": false, "url": "https://www.yelp.com/biz/grimaldis-hoboken?adjust_creative=WAxio19XFGhmTEs-1xPo1A&utm_campaign=yelp_api_v3&utm_medium=api_v3_business_search&utm_source=WAxio19XFGhmTEs-1xPo1A", "review_count": 409, "categories": [{"alias": "pizza", "title": "Pizza"}], "rating": 4.0, "coordinates": {"latitude": 40.74131, "longitude": -74.02953}, "transactions": ["delivery"], "price": "$$", "location": {"address1": "411 Washington St", "address2": "", "address3": "", "city": "Hoboken", "zip_code": "07030", "country": "US", "state": "NJ", "display_address": ["411 Washington St", "Hoboken, NJ 07030"]}, "phone": "+12017920010", "display_phone": "(201) 792-0010", "distance": 4996.251158691458}, {"id": "qIOdughNii7-OW88IFtPQw", "alias": "rosas-pizza-ridgewood", "name": "Rosa's Pizza", "image_url": "https://s3-media4.fl.yelpcdn.com/bphoto/DTa1CbELDyW7LYchNVAoYg/o.jpg", "is_closed": false, "url": "https://www.yelp.com/biz/rosas-pizza-ridgewood?adjust_creative=WAxio19XFGhmTEs-1xPo1A&utm_campaign=yelp_api_v3&utm_medium=api_v3_business_search&utm_source=WAxio19XFGhmTEs-1xPo1A", "review_count": 264, "categories": [{"alias": "pizza", "title": "Pizza"}, {"alias": "italian", "title": "Italian"}], "rating": 4.5, "coordinates": {"latitude": 40.712192, "longitude": -73.899997}, "transactions": [], "price": "$", "location": {"address1": "6265 Fresh Pond Rd", "address2": "", "address3": "", "city": "Ridgewood", "zip_code": "11385", "country": "US", "state": "NY", "display_address": ["6265 Fresh Pond Rd", "Ridgewood, NY 11385"]}, "phone": "+17184977672", "display_phone": "(718) 497-7672", "distance": 7983.5045495200175}, {"id": "oJ_XSPZFpvIt6rvheSQl7A", "alias": "bleecker-street-pizza-new-york", "name": "Bleecker Street Pizza", "image_url": "https://s3-media4.fl.yelpcdn.com/bphoto/Kyi2tP43S_a6s-zXD38NUQ/o.jpg", "is_closed": false, "url": "https://www.yelp.com/biz/bleecker-street-pizza-new-york?adjust_creative=WAxio19XFGhmTEs-1xPo1A&utm_campaign=yelp_api_v3&utm_medium=api_v3_business_search&utm_source=WAxio19XFGhmTEs-1xPo1A", "review_count": 2362, "categories": [{"alias": "pizza", "title": "Pizza"}, {"alias": "italian", "title": "Italian"}], "rating": 4.0, "coordinates": {"latitude": 40.7320627016512, "longitude": -74.0036552270137}, "transactions": ["delivery", "pickup"], "price": "$", "location": {"address1": "69 7th Ave S", "address2": null, "address3": "", "city": "New York", "zip_code": "10014", "country": "US", "state": "NY", "display_address": ["69 7th Ave S", "New York, NY 10014"]}, "phone": "+12129244466", "display_phone": "(212) 924-4466", "distance": 3072.9540450669765}, {"id": "F2R-y69dCJlTiXS0NcElDQ", "alias": "astoria-pizza-factory-astoria", "name": "Astoria Pizza Factory", "image_url": "https://s3-media2.fl.yelpcdn.com/bphoto/JPbXOHNrs1QM73ZUFtl1XA/o.jpg", "is_closed": false, "url": "https://www.yelp.com/biz/astoria-pizza-factory-astoria?adjust_creative=WAxio19XFGhmTEs-1xPo1A&utm_campaign=yelp_api_v3&utm_medium=api_v3_business_search&utm_source=WAxio19XFGhmTEs-1xPo1A", "review_count": 156, "categories": [{"alias": "pizza", "title": "Pizza"}, {"alias": "italian", "title": "Italian"}, {"alias": "catering", "title": "Caterers"}], "rating": 4.5, "coordinates": {"latitude": 40.7786344992522, "longitude": -73.9026485111397}, "transactions": ["delivery", "pickup"], "price": "$", "location": {"address1": "1946 37th St", "address2": "", "address3": "", "city": "Astoria", "zip_code": "11105", "country": "US", "state": "NY", "display_address": ["1946 37th St", "Astoria, NY 11105"]}, "phone": "+17187269112", "display_phone": "(718) 726-9112", "distance": 11217.983524051704}, {"id": "JYNBy2r3LVhJbLHE1bASfg", "alias": "the-smith-new-york-3", "name": "The Smith", "image_url": "https://s3-media4.fl.yelpcdn.com/bphoto/xJ_cTGgxwPs_Tr4cIw_VOA/o.jpg", "is_closed": false, "url": "https://www.yelp.com/biz/the-smith-new-york-3?adjust_creative=WAxio19XFGhmTEs-1xPo1A&utm_campaign=yelp_api_v3&utm_medium=api_v3_business_search&utm_source=WAxio19XFGhmTEs-1xPo1A", "review_count": 1713, "categories": [{"alias": "newamerican", "title": "American (New)"}, {"alias": "breakfast_brunch", "title": "Breakfast & Brunch"}, {"alias": "cocktailbars", "title": "Cocktail Bars"}], "rating": 4.0, "coordinates": {"latitude": 40.7716201269986, "longitude": -73.9818377981476}, "transactions": ["delivery", "pickup"], "price": "$$", "location": {"address1": "1900 Broadway", "address2": "", "address3": "", "city": "New York", "zip_code": "10023", "country": "US", "state": "NY", "display_address": ["1900 Broadway", "New York, NY 10023"]}, "phone": "+12124965700", "display_phone": "(212) 496-5700", "distance": 7432.796735777396}, {"id": "tHW3EwGwai1AiWQ6ZD-wjg", "alias": "industry-kitchen-new-york", "name": "Industry Kitchen", "image_url": "https://s3-media4.fl.yelpcdn.com/bphoto/EAoARKfKhWeDNiFVwZN1Lg/o.jpg", "is_closed": false, "url": "https://www.yelp.com/biz/industry-kitchen-new-york?adjust_creative=WAxio19XFGhmTEs-1xPo1A&utm_campaign=yelp_api_v3&utm_medium=api_v3_business_search&utm_source=WAxio19XFGhmTEs-1xPo1A", "review_count": 615, "categories": [{"alias": "tradamerican", "title": "American (Traditional)"}, {"alias": "breakfast_brunch", "title": "Breakfast & Brunch"}, {"alias": "cocktailbars", "title": "Cocktail Bars"}], "rating": 3.5, "coordinates": {"latitude": 40.7049434740873, "longitude": -74.0048825740814}, "transactions": ["delivery", "pickup"], "price": "$$", "location": {"address1": "70 South St", "address2": "", "address3": "", "city": "New York", "zip_code": "10005", "country": "US", "state": "NY", "display_address": ["70 South St", "New York, NY 10005"]}, "phone": "+12124879600", "display_phone": "(212) 487-9600", "distance": 894.3592805518992}, {"id": "wnXdgkWYN0p4SEl_AdMzLA", "alias": "bar-toto-brooklyn", "name": "Bar Toto", "image_url": "https://s3-media2.fl.yelpcdn.com/bphoto/RS5kECYkJIC3pObzEptyDQ/o.jpg", "is_closed": false, "url": "https://www.yelp.com/biz/bar-toto-brooklyn?adjust_creative=WAxio19XFGhmTEs-1xPo1A&utm_campaign=yelp_api_v3&utm_medium=api_v3_business_search&utm_source=WAxio19XFGhmTEs-1xPo1A", "review_count": 266, "categories": [{"alias": "italian", "title": "Italian"}, {"alias": "bars", "title": "Bars"}], "rating": 3.5, "coordinates": {"latitude": 40.6669, "longitude": -73.984672}, "transactions": ["delivery", "pickup"], "price": "$$", "location": {"address1": "411 11th St", "address2": "", "address3": "", "city": "Brooklyn", "zip_code": "11215", "country": "US", "state": "NY", "display_address": ["411 11th St", "Brooklyn, NY 11215"]}, "phone": "+17187684698", "display_phone": "(718) 768-4698", "distance": 4362.700185622513}, {"id": "aaA4UHm25lbUIOlwwjWLyw", "alias": "roeys-new-york", "name": "Roey's", "image_url": "https://s3-media4.fl.yelpcdn.com/bphoto/MPIHxubSegSnZ31CEVP1mw/o.jpg", "is_closed": false, "url": "https://www.yelp.com/biz/roeys-new-york?adjust_creative=WAxio19XFGhmTEs-1xPo1A&utm_campaign=yelp_api_v3&utm_medium=api_v3_business_search&utm_source=WAxio19XFGhmTEs-1xPo1A", "review_count": 80, "categories": [{"alias": "pizza", "title": "Pizza"}, {"alias": "italian", "title": "Italian"}, {"alias": "wine_bars", "title": "Wine Bars"}], "rating": 4.0, "coordinates": {"latitude": 40.73596, "longitude": -74.00093}, "transactions": ["delivery", "pickup"], "price": "$$", "location": {"address1": "1 Perry St", "address2": "", "address3": null, "city": "New York", "zip_code": "10014", "country": "US", "state": "NY", "display_address": ["1 Perry St", "New York, NY 10014"]}, "phone": "+16468641200", "display_phone": "(646) 864-1200", "distance": 3442.7663655504134}, {"id": "Bh1JBgQWZl9zct46uw_FzQ", "alias": "charlie-bird-new-york", "name": "Charlie Bird", "image_url": "https://s3-media2.fl.yelpcdn.com/bphoto/6SVsXN-v0Uqoi-NkDpthRg/o.jpg", "is_closed": false, "url": "https://www.yelp.com/biz/charlie-bird-new-york?adjust_creative=WAxio19XFGhmTEs-1xPo1A&utm_campaign=yelp_api_v3&utm_medium=api_v3_business_search&utm_source=WAxio19XFGhmTEs-1xPo1A", "review_count": 462, "categories": [{"alias": "italian", "title": "Italian"}], "rating": 3.5, "coordinates": {"latitude": 40.72781, "longitude": -74.002861}, "transactions": [], "price": "$$", "location": {"address1": "5 King St", "address2": null, "address3": "", "city": "New York", "zip_code": "10012", "country": "US", "state": "NY", "display_address": ["5 King St", "New York, NY 10012"]}, "phone": "+12122357133", "display_phone": "(212) 235-7133", "distance": 2586.7950545462}, {"id": "PxDPLaLj8349G5MsyMmV7w", "alias": "l-italiano-trattoria-oakland-gardens", "name": "L' Italiano Trattoria", "image_url": "https://s3-media2.fl.yelpcdn.com/bphoto/gLDA3zQvMDAhx5QZKeEsEw/o.jpg", "is_closed": false, "url": "https://www.yelp.com/biz/l-italiano-trattoria-oakland-gardens?adjust_creative=WAxio19XFGhmTEs-1xPo1A&utm_campaign=yelp_api_v3&utm_medium=api_v3_business_search&utm_source=WAxio19XFGhmTEs-1xPo1A", "review_count": 62, "categories": [{"alias": "italian", "title": "Italian"}], "rating": 3.5, "coordinates": {"latitude": 40.74809, "longitude": -73.7613499}, "transactions": [], "price": "$$", "location": {"address1": "216-01 Horace Harding Expwy N", "address2": "", "address3": "", "city": "Oakland Gardens", "zip_code": "11364", "country": "US", "state": "NY", "display_address": ["216-01 Horace Harding Expwy N", "Oakland Gardens, NY 11364"]}, "phone": "+17182242536", "display_phone": "(718) 224-2536", "distance": 20193.684436765237}, {"id": "8Yv1jmEmwaB5-rsIVIXAig", "alias": "la-traviata-pizzeria-new-york-2", "name": "LA Traviata Pizzeria", "image_url": "https://s3-media4.fl.yelpcdn.com/bphoto/KQRNd4gRwseB0baOka1fMw/o.jpg", "is_closed": false, "url": "https://www.yelp.com/biz/la-traviata-pizzeria-new-york-2?adjust_creative=WAxio19XFGhmTEs-1xPo1A&utm_campaign=yelp_api_v3&utm_medium=api_v3_business_search&utm_source=WAxio19XFGhmTEs-1xPo1A", "review_count": 175, "categories": [{"alias": "pizza", "title": "Pizza"}], "rating": 3.5, "coordinates": {"latitude": 40.77505, "longitude": -73.98088}, "transactions": ["delivery", "pickup"], "price": "$", "location": {"address1": "101 W 68th St", "address2": "", "address3": "", "city": "New York", "zip_code": "10023", "country": "US", "state": "NY", "display_address": ["101 W 68th St", "New York, NY 10023"]}, "phone": "+12127211101", "display_phone": "(212) 721-1101", "distance": 7824.32643786717}, {"id": "6zH2Ih2Hw2wwf9ssIbZYRw", "alias": "vinotapa-new-york", "name": "VinoTapa", "image_url": "https://s3-media4.fl.yelpcdn.com/bphoto/l7MDCcS8vM5NgC4V-eK8fw/o.jpg", "is_closed": false, "url": "https://www.yelp.com/biz/vinotapa-new-york?adjust_creative=WAxio19XFGhmTEs-1xPo1A&utm_campaign=yelp_api_v3&utm_medium=api_v3_business_search&utm_source=WAxio19XFGhmTEs-1xPo1A", "review_count": 405, "categories": [{"alias": "tapas", "title": "Tapas Bars"}, {"alias": "wine_bars", "title": "Wine Bars"}, {"alias": "spanish", "title": "Spanish"}], "rating": 4.0, "coordinates": {"latitude": 40.7436868467235, "longitude": -73.9790102422585}, "transactions": ["delivery", "pickup"], "price": "$$", "location": {"address1": "201 E 31st St", "address2": "", "address3": "", "city": "New York", "zip_code": "10016", "country": "US", "state": "NY", "display_address": ["201 E 31st St", "New York, NY 10016"]}, "phone": "+12127258466", "display_phone": "(212) 725-8466", "distance": 4443.061319106825}, {"id": "461hss6jSwjN8FdiZgN6wA", "alias": "the-original-goodfellas-brick-oven-pizza-staten-island-2", "name": "The Original Goodfella's Brick Oven Pizza", "image_url": "https://s3-media1.fl.yelpcdn.com/bphoto/6DQT6mdKn05HGmDapqlRgA/o.jpg", "is_closed": false, "url": "https://www.yelp.com/biz/the-original-goodfellas-brick-oven-pizza-staten-island-2?adjust_creative=WAxio19XFGhmTEs-1xPo1A&utm_campaign=yelp_api_v3&utm_medium=api_v3_business_search&utm_source=WAxio19XFGhmTEs-1xPo1A", "review_count": 260, "categories": [{"alias": "pizza", "title": "Pizza"}, {"alias": "italian", "title": "Italian"}, {"alias": "bars", "title": "Bars"}], "rating": 4.0, "coordinates": {"latitude": 40.586785, "longitude": -74.091438}, "transactions": ["delivery", "pickup"], "price": "$$", "location": {"address1": "1718 Hylan Blvd", "address2": "", "address3": "", "city": "Staten Island", "zip_code": "10305", "country": "US", "state": "NY", "display_address": ["1718 Hylan Blvd", "Staten Island, NY 10305"]}, "phone": "+17189872422", "display_phone": "(718) 987-2422", "distance": 15532.71466648253}, {"id": "BnD4rXxjArNd9q5sC8t4uQ", "alias": "the-longshoreman-new-york", "name": "The Longshoreman", "image_url": "https://s3-media4.fl.yelpcdn.com/bphoto/Jy9SQVzv8oDhWubvUjLa_A/o.jpg", "is_closed": false, "url": "https://www.yelp.com/biz/the-longshoreman-new-york?adjust_creative=WAxio19XFGhmTEs-1xPo1A&utm_campaign=yelp_api_v3&utm_medium=api_v3_business_search&utm_source=WAxio19XFGhmTEs-1xPo1A", "review_count": 57, "categories": [{"alias": "italian", "title": "Italian"}], "rating": 4.5, "coordinates": {"latitude": 40.68472, "longitude": -74.0027}, "transactions": [], "location": {"address1": "215 Columbia St", "address2": null, "address3": "", "city": "New York", "zip_code": "11231", "country": "US", "state": "NY", "display_address": ["215 Columbia St", "New York, NY 11231"]}, "phone": "+19292950285", "display_phone": "(929) 295-0285", "distance": 2412.218171966761}, {"id": "JZxGDv-ZhWnfMwlkboqG6w", "alias": "nuccis-south-staten-island", "name": "Nucci's South", "image_url": "https://s3-media1.fl.yelpcdn.com/bphoto/1twR3v3KOi5bkCel8KmNdQ/o.jpg", "is_closed": false, "url": "https://www.yelp.com/biz/nuccis-south-staten-island?adjust_creative=WAxio19XFGhmTEs-1xPo1A&utm_campaign=yelp_api_v3&utm_medium=api_v3_business_search&utm_source=WAxio19XFGhmTEs-1xPo1A", "review_count": 118, "categories": [{"alias": "italian", "title": "Italian"}], "rating": 4.0, "coordinates": {"latitude": 40.5241224873809, "longitude": -74.2385790765824}, "transactions": ["delivery", "pickup"], "price": "$$", "location": {"address1": "4848 Arthur Kill Rd", "address2": "", "address3": "", "city": "Staten Island", "zip_code": "10309", "country": "US", "state": "NY", "display_address": ["4848 Arthur Kill Rd", "Staten Island, NY 10309"]}, "phone": "+17189673600", "display_phone": "(718) 967-3600", "distance": 28838.930001714518}, {"id": "-UcF6qcgG6a36tcYDCcWGw", "alias": "buon-cafe-and-trattoria-middle-village-2", "name": "Buon Cafe & Trattoria", "image_url": "https://s3-media3.fl.yelpcdn.com/bphoto/etCcZlET5fDa-YPOTkWEEg/o.jpg", "is_closed": false, "url": "https://www.yelp.com/biz/buon-cafe-and-trattoria-middle-village-2?adjust_creative=WAxio19XFGhmTEs-1xPo1A&utm_campaign=yelp_api_v3&utm_medium=api_v3_business_search&utm_source=WAxio19XFGhmTEs-1xPo1A", "review_count": 133, "categories": [{"alias": "breakfast_brunch", "title": "Breakfast & Brunch"}, {"alias": "italian", "title": "Italian"}, {"alias": "sandwiches", "title": "Sandwiches"}], "rating": 3.5, "coordinates": {"latitude": 40.72193, "longitude": -73.88532}, "transactions": ["delivery", "pickup"], "price": "$$", "location": {"address1": "74-02 Eliot Ave", "address2": "", "address3": "", "city": "Middle Village", "zip_code": "11379", "country": "US", "state": "NY", "display_address": ["74-02 Eliot Ave", "Middle Village, NY 11379"]}, "phone": "+17184782200", "display_phone": "(718) 478-2200", "distance": 9364.055728176307}, {"id": "6BC5LQI4Cg3KChkgigo9sA", "alias": "lo-duca-pizza-brooklyn", "name": "Lo Duca Pizza", "image_url": "https://s3-media1.fl.yelpcdn.com/bphoto/TzsRRoCbP1MdWug79I7lRQ/o.jpg", "is_closed": false, "url": "https://www.yelp.com/biz/lo-duca-pizza-brooklyn?adjust_creative=WAxio19XFGhmTEs-1xPo1A&utm_campaign=yelp_api_v3&utm_medium=api_v3_business_search&utm_source=WAxio19XFGhmTEs-1xPo1A", "review_count": 112, "categories": [{"alias": "pizza", "title": "Pizza"}], "rating": 4.5, "coordinates": {"latitude": 40.6349400235262, "longitude": -73.9625812061059}, "transactions": [], "price": "$", "location": {"address1": "14 Newkirk Plz", "address2": "", "address3": "", "city": "Brooklyn", "zip_code": "11226", "country": "US", "state": "NY", "display_address": ["14 Newkirk Plz", "Brooklyn, NY 11226"]}, "phone": "+17188591501", "display_phone": "(718) 859-1501", "distance": 8283.427380652798}], "total": 8200, "region": {"center": {"longitude": -73.99429321289062, "latitude": 40.70544486444615}}}